$GPRMC,080001.00,A,4809.62600,N,01707.85605,E,0.499,,190422,,,A,V*03
$GPVTG,,T,,M,0.499,N,0.924,K,A*28
$GPGNS,080001.00,4809.62600,N,01707.85605,E,ANNN,08,0.93,110.8,41.4,,,V*09
$GPGGA,080001.00,4809.62600,N,01707.85605,E,1,08,0.93,110.8,M,41.4,M,,*56
$GPGSA,A,3,12,32,15,17,06,25,24,19,,,,,1.64,0.93,1.35,1*1E
$GPGSV,3,1,12,02,14,136,,06,23,091,21,10,00,273,,11,08,133,,0*65
$GPGSV,3,2,12,12,72,277,15,15,12,190,09,17,19,043,24,19,37,053,28,0*6E
$GPGSV,3,3,12,22,09,326,,24,75,152,17,25,29,262,10,32,23,314,20,0*63
$GPGLL,4809.62600,N,01707.85605,E,080001.00,A,A*68
$GPGST,080001.00,4240655,,,,15,7.3,21*69
$GPZDA,080001.00,19,04,2022,00,00*61
$GARMC,,V,,,,,,,,,,N,V*38
$GAVTG,,,,,,,,,N*21
$GAGNS,,,,,,NNNN,00,99.99,,,,,V*08
$GAGGA,,,,,,0,00,99.99,,,,,,*59
$GAGSA,A,1,,,,,,,,,,,,,99.99,99.99,99.99,1*3C
$GAGSA,A,1,,,,,,,,,,,,,99.99,99.99,99.99,3*3E
$GAGSV,1,1,00,0*74
$GAGSV,1,1,00,0*74
$GAGLL,,,,,,V,N*75
$GAGST,,0.0000,,,,3871188,3871188,3871188*64
$GAZDA,,,,,00,00*59
$GLRMC,080001.00,V,,,,,,,190422,,,N,V*1E
$GLVTG,,,,,,,,,N*2C
$GLGNS,080001.00,,,,,NNNN,00,99.99,,,,,V*22
$GLGGA,080001.00,,,,,0,00,99.99,,,,,,*73
$GLGSA,A,1,,,,,,,,,,,,,99.99,99.99,99.99,2*32
$GLGSV,3,1,09,68,15,226,,69,33,278,,70,13,340,,77,17,091,,0*70
$GLGSV,3,2,09,78,66,043,,79,42,301,,81,15,163,,87,38,046,24,0*7A
$GLGSV,3,3,09,88,47,112,19,0*49
$GLGLL,,,,,080001.00,V,N*5F
$GLGST,080001.00,0.0000,,,,6512,6240,1070*74
$GLZDA,080001.00,19,04,2022,00,00*7D
$GBRMC,,V,,,,,,,,,,N,V*3B
$GBVTG,,,,,,,,,N*22
$GBGNS,,,,,,NNNN,00,99.99,,,,,V*0B
$GBGGA,,,,,,0,00,99.99,,,,,,*5A
$GBGSA,A,1,,,,,,,,,,,,,99.99,99.99,99.99,4*3A
$GBGSV,1,1,00,0*77
$GBGLL,,,,,,V,N*76
$GBGST,,0.0000,,,,3871188,3871188,3871188*67
$GBZDA,,,,,00,00*5A
$GPRMC,080002.00,A,4809.62724,N,01707.85602,E,0.861,,190422,,,A,V*0B
$GPVTG,,T,,M,0.861,N,1.595,K,A*24
$GPGNS,080002.00,4809.62724,N,01707.85602,E,ANNN,08,0.93,111.3,41.4,,,V*00
$GPGGA,080002.00,4809.62724,N,01707.85602,E,1,08,0.93,111.3,M,41.4,M,,*5F
$GPGSA,A,3,12,32,15,17,06,25,24,19,,,,,1.64,0.93,1.35,1*1E
$GPGSV,3,1,12,02,14,136,,06,23,091,21,10,00,273,,11,08,133,,0*65
$GPGSV,3,2,12,12,72,277,14,15,12,190,11,17,19,043,23,19,37,053,28,0*61
$GPGSV,3,3,12,22,09,326,,24,75,152,16,25,29,262,10,32,23,314,19,0*68
$GPGLL,4809.62724,N,01707.85602,E,080002.00,A,A*6B
$GPGST,080002.00,75,,,,15,7.4,20*5A
$GPZDA,080002.00,19,04,2022,00,00*62
$GARMC,,V,,,,,,,,,,N,V*38
$GAVTG,,,,,,,,,N*21
$GAGNS,,,,,,NNNN,00,99.99,,,,,V*08
$GAGGA,,,,,,0,00,99.99,,,,,,*59
$GAGSA,A,1,,,,,,,,,,,,,99.99,99.99,99.99,1*3C
$GAGSA,A,1,,,,,,,,,,,,,99.99,99.99,99.99,3*3E
$GAGSV,1,1,00,0*74
$GAGSV,1,1,00,0*74
$GAGLL,,,,,,V,N*75
$GAGST,,0.0000,,,,3871193,3871193,3871193*6E
$GAZDA,,,,,00,00*59
$GLRMC,080002.00,V,,,,,,,190422,,,N,V*1D
$GLVTG,,,,,,,,,N*2C
$GLGNS,080002.00,,,,,NNNN,00,99.99,,,,,V*21
$GLGGA,080002.00,,,,,0,00,99.99,,,,,,*70
$GLGSA,A,1,,,,,,,,,,,,,99.99,99.99,99.99,2*32
$GLGSV,3,1,09,68,15,226,,69,33,278,,70,13,340,,77,17,091,,0*70
$GLGSV,3,2,09,78,66,043,,79,42,301,,81,15,163,,87,38,046,24,0*7A
$GLGSV,3,3,09,88,47,112,18,0*48
$GLGLL,,,,,080002.00,V,N*5C
$GLGST,080002.00,0.0000,,,,6538,6264,1074*7D
$GLZDA,080002.00,19,04,2022,00,00*7E
$GBRMC,,V,,,,,,,,,,N,V*3B
$GBVTG,,,,,,,,,N*22
$GBGNS,,,,,,NNNN,00,99.99,,,,,V*0B
$GBGGA,,,,,,0,00,99.99,,,,,,*5A
$GBGSA,A,1,,,,,,,,,,,,,99.99,99.99,99.99,4*3A
$GBGSV,1,1,00,0*77
$GBGLL,,,,,,V,N*76
$GBGST,,0.0000,,,,3871193,3871193,3871193*6D
$GBZDA,,,,,00,00*5A
$GPRMC,080003.00,A,4809.62761,N,01707.85643,E,0.496,,190422,,,A,V*0A
$GPVTG,,T,,M,0.496,N,0.919,K,A*29
$GPGNS,080003.00,4809.62761,N,01707.85643,E,ANNN,08,0.93,111.1,41.4,,,V*07
$GPGGA,080003.00,4809.62761,N,01707.85643,E,1,08,0.93,111.1,M,41.4,M,,*58
$GPGSA,A,3,12,32,15,17,06,25,24,19,,,,,1.64,0.93,1.35,1*1E
$GPGSV,3,1,12,02,14,136,,06,23,091,21,10,00,273,,11,08,133,,0*65
$GPGSV,3,2,12,12,72,277,14,15,12,190,12,17,19,043,23,19,37,053,28,0*62
$GPGSV,3,3,12,22,09,326,,24,75,152,17,25,29,262,09,32,23,314,19,0*61
$GPGLL,4809.62761,N,01707.85643,E,080003.00,A,A*6E
$GPGST,080003.00,5947882,,,,15,7.6,20*66
$GPZDA,080003.00,19,04,2022,00,00*63
$GARMC,,V,,,,,,,,,,N,V*38
$GAVTG,,,,,,,,,N*21
$GAGNS,,,,,,NNNN,00,99.99,,,,,V*08
$GAGGA,,,,,,0,00,99.99,,,,,,*59
$GAGSA,A,1,,,,,,,,,,,,,99.99,99.99,99.99,1*3C
$GAGSA,A,1,,,,,,,,,,,,,99.99,99.99,99.99,3*3E
$GAGSV,1,1,00,0*74
$GAGSV,1,1,00,0*74
$GAGLL,,,,,,V,N*75
$GAGST,,0.0000,,,,3871198,3871198,3871198*65
$GAZDA,,,,,00,00*59
$GLRMC,080003.00,V,,,,,,,190422,,,N,V*1C
$GLVTG,,,,,,,,,N*2C
$GLGNS,080003.00,,,,,NNNN,00,99.99,,,,,V*20
$GLGGA,080003.00,,,,,0,00,99.99,,,,,,*71
$GLGSA,A,1,,,,,,,,,,,,,99.99,99.99,99.99,2*32
$GLGSV,3,1,09,68,15,226,,69,33,278,,70,13,340,,77,17,091,,0*70
$GLGSV,3,2,09,78,66,043,,79,42,301,,81,15,163,,87,38,046,24,0*7A
$GLGSV,3,3,09,88,47,112,16,0*46
$GLGLL,,,,,080003.00,V,N*5D
$GLGST,080003.00,0.0000,,,,6563,6289,1078*7D
$GLZDA,080003.00,19,04,2022,00,00*7F
$GBRMC,,V,,,,,,,,,,N,V*3B
$GBVTG,,,,,,,,,N*22
$GBGNS,,,,,,NNNN,00,99.99,,,,,V*0B
$GBGGA,,,,,,0,00,99.99,,,,,,*5A
$GBGSA,A,1,,,,,,,,,,,,,99.99,99.99,99.99,4*3A
$GBGSV,1,1,00,0*77
$GBGLL,,,,,,V,N*76
$GBGST,,0.0000,,,,3871198,3871198,3871198*66
$GBZDA,,,,,00,00*5A
$GPRMC,080004.00,A,4809.62787,N,01707.85682,E,0.509,,190422,,,A,V*0F
$GPVTG,,T,,M,0.509,N,0.943,K,A*21
$GPGNS,080004.00,4809.62787,N,01707.85682,E,ANNN,08,0.93,110.3,41.4,,,V*06
$GPGGA,080004.00,4809.62787,N,01707.85682,E,1,08,0.93,110.3,M,41.4,M,,*59
$GPGSA,A,3,12,32,15,17,06,25,24,19,,,,,1.64,0.93,1.35,1*1E
$GPGSV,3,1,12,02,14,136,,06,23,091,21,10,00,273,,11,08,133,,0*65
$GPGSV,3,2,12,12,72,277,14,15,12,190,10,17,19,043,23,19,37,053,27,0*6F
$GPGSV,3,3,12,22,09,326,,24,75,152,17,25,29,262,12,32,23,314,19,0*6B
$GPGLL,4809.62787,N,01707.85682,E,080004.00,A,A*6C
$GPGST,080004.00,5947882,,,,15,7.7,21*61
$GPZDA,080004.00,19,04,2022,00,00*64
$GARMC,,V,,,,,,,,,,N,V*38
$GAVTG,,,,,,,,,N*21
$GAGNS,,,,,,NNNN,00,99.99,,,,,V*08
$GAGGA,,,,,,0,00,99.99,,,,,,*59
$GAGSA,A,1,,,,,,,,,,,,,99.99,99.99,99.99,1*3C
$GAGSA,A,1,,,,,,,,,,,,,99.99,99.99,99.99,3*3E
$GAGSV,1,1,00,0*74
$GAGSV,1,1,00,0*74
$GAGLL,,,,,,V,N*75
$GAGST,,0.0000,,,,3871203,3871203,3871203*64
$GAZDA,,,,,00,00*59
$GLRMC,080004.00,V,,,,,,,190422,,,N,V*1B
$GLVTG,,,,,,,,,N*2C
$GLGNS,080004.00,,,,,NNNN,00,99.99,,,,,V*27
$GLGGA,080004.00,,,,,0,00,99.99,,,,,,*76
$GLGSA,A,1,,,,,,,,,,,,,99.99,99.99,99.99,2*32
$GLGSV,3,1,09,68,15,226,,69,33,278,,70,13,340,,77,17,091,,0*70
$GLGSV,3,2,09,78,66,043,,79,42,301,,81,15,163,,87,38,046,23,0*7D
$GLGSV,3,3,09,88,47,112,16,0*46
$GLGLL,,,,,080004.00,V,N*5A
$GLGST,080004.00,0.0000,,,,6589,6314,1082*7E
$GLZDA,080004.00,19,04,2022,00,00*78
$GBRMC,,V,,,,,,,,,,N,V*3B
$GBVTG,,,,,,,,,N*22
$GBGNS,,,,,,NNNN,00,99.99,,,,,V*0B
$GBGGA,,,,,,0,00,99.99,,,,,,*5A
$GBGSA,A,1,,,,,,,,,,,,,99.99,99.99,99.99,4*3A
$GBGLL,,,,,,V,N*76
$GBGST,,0.0000,,,,3871203,3871203,3871203*67
$GBZDA,,,,,00,00*5A
$GPRMC,080005.00,A,4809.62848,N,01707.85659,E,0.373,,190422,,,A,V*0F
$GPVTG,,T,,M,0.373,N,0.691,K,A*2A
$GPGNS,080005.00,4809.62848,N,01707.85659,E,ANNN,08,0.93,111.1,41.4,,,V*0E
$GPGGA,080005.00,4809.62848,N,01707.85659,E,1,08,0.93,111.1,M,41.4,M,,*51
$GPGSA,A,3,12,32,15,17,06,25,24,19,,,,,1.64,0.93,1.35,1*1E
$GPGSV,3,1,12,02,14,136,,06,23,091,21,10,00,273,,11,08,133,,0*65
$GPGSV,3,2,12,12,72,277,13,15,12,190,11,17,19,043,21,19,37,053,27,0*6B
$GPGSV,3,3,12,22,09,326,,24,75,152,16,25,29,262,14,32,23,314,18,0*6D
$GPGLL,4809.62848,N,01707.85659,E,080005.00,A,A*67
$GPGST,080005.00,88,,,,15,7.8,20*53
$GPZDA,080005.00,19,04,2022,00,00*65
$GARMC,,V,,,,,,,,,,N,V*38
$GAVTG,,,,,,,,,N*21
$GAGNS,,,,,,NNNN,00,99.99,,,,,V*08
$GAGGA,,,,,,0,00,99.99,,,,,,*59
$GAGSA,A,1,,,,,,,,,,,,,99.99,99.99,99.99,1*3C
$GAGSA,A,1,,,,,,,,,,,,,99.99,99.99,99.99,3*3E
$GAGSV,1,1,00,0*74
$GAGSV,1,1,00,0*74
$GAGLL,,,,,,V,N*75
$GAGST,,0.0000,,,,3871208,3871208,3871208*6F
$GAZDA,,,,,00,00*59
$GLRMC,080005.00,V,,,,,,,190422,,,N,V*1A
$GLVTG,,,,,,,,,N*2C
$GLGNS,080005.00,,,,,NNNN,00,99.99,,,,,V*26
$GLGGA,080005.00,,,,,0,00,99.99,,,,,,*77
$GLGSA,A,1,,,,,,,,,,,,,99.99,99.99,99.99,2*32
$GLGSV,3,1,09,68,15,226,,69,33,278,,70,13,340,,77,17,091,,0*70
$GLGSV,3,2,09,78,66,043,,79,42,301,,81,15,163,,87,38,046,22,0*7C
$GLGSV,3,3,09,88,47,112,15,0*45
$GLGLL,,,,,080005.00,V,N*5B
$GLGST,080005.00,0.0000,,,,6614,6339,1087*72
$GLZDA,080005.00,19,04,2022,00,00*79
$GBRMC,,V,,,,,,,,,,N,V*3B
$GBVTG,,,,,,,,,N*22
$GBGNS,,,,,,NNNN,00,99.99,,,,,V*0B
$GBGGA,,,,,,0,00,99.99,,,,,,*5A
$GBGSA,A,1,,,,,,,,,,,,,99.99,99.99,99.99,4*3A
$GBGSV,1,1,00,0*77
$GBGLL,,,,,,V,N*76
$GBGST,,0.0000,,,,3871208,3871208,3871208*6C
$GBZDA,,,,,00,00*5A
$GPRMC,080006.00,A,4809.62899,N,01707.85667,E,1.043,,190422,,,A,V*0C
$GPVTG,,T,,M,1.043,N,1.931,K,A*2F
$GPGNS,080006.00,4809.62899,N,01707.85667,E,ANNN,07,1.02,110.7,41.4,,,V*0D
$GPGGA,080006.00,4809.62899,N,01707.85667,E,1,07,1.02,110.7,M,41.4,M,,*52
$GPGSA,A,3,12,32,15,06,25,24,19,,,,,,1.76,1.02,1.44,1*14
$GPGSV,3,1,12,02,14,136,,06,23,091,19,10,00,273,,11,08,133,,0*6E
$GPGSV,3,2,12,12,72,277,12,15,12,190,11,17,19,043,,19,37,053,25,0*6B
$GPGSV,3,3,12,22,09,326,,24,75,152,16,25,29,262,10,32,23,314,17,0*66
$GPGLL,4809.62899,N,01707.85667,E,080006.00,A,A*65
$GPGST,080006.00,4533451,,,,15,8.0,21*67
$GPZDA,080006.00,19,04,2022,00,00*66
$GARMC,,V,,,,,,,,,,N,V*38
$GAVTG,,,,,,,,,N*21
$GAGNS,,,,,,NNNN,00,99.99,,,,,V*08
$GAGGA,,,,,,0,00,99.99,,,,,,*59
$GAGSA,A,1,,,,,,,,,,,,,99.99,99.99,99.99,1*3C
$GAGSA,A,1,,,,,,,,,,,,,99.99,99.99,99.99,3*3E
$GAGSV,1,1,00,0*74
$GAGSV,1,1,00,0*74
$GAGLL,,,,,,V,N*75
$GAGST,,0.0000,,,,3871213,3871213,3871213*65
$GAZDA,,,,,00,00*59
$GLRMC,080006.00,V,,,,,,,190422,,,N,V*19
$GLVTG,,,,,,,,,N*2C
$GLGNS,080006.00,,,,,NNNN,00,99.99,,,,,V*25
$GLGGA,080006.00,,,,,0,00,99.99,,,,,,*74
$GLGSA,A,1,,,,,,,,,,,,,99.99,99.99,99.99,2*32
$GLGSV,3,1,09,68,15,226,,69,33,278,,70,13,340,,77,17,091,,0*70
$GLGSV,3,2,09,78,66,043,,79,42,301,,81,15,163,,87,38,046,22,0*7C
$GLGSV,3,3,09,88,47,112,15,0*45
$GLGLL,,,,,080006.00,V,N*58
$GLGST,080006.00,0.0000,,,,6640,6364,1091*7F
$GLZDA,080006.00,19,04,2022,00,00*7A
$GBRMC,,V,,,,,,,,,,N,V*3B
$GBVTG,,,,,,,,,N*22
$GBGNS,,,,,,NNNN,00,99.99,,,,,V*0B
$GBGGA,,,,,,0,00,99.99,,,,,,*5A
$GBGSA,A,1,,,,,,,,,,,,,99.99,99.99,99.99,4*3A
$GBGSV,1,1,00,0*77
$GBGLL,,,,,,V,N*76
$GBGST,,0.0000,,,,3871213,3871213,3871213*66
$GBZDA,,,,,00,00*5A
$GPRMC,080007.00,A,4809.62960,N,01707.85695,E,1.417,,190422,,,A,V*02
$GPVTG,,T,,M,1.417,N,2.624,K,A*22
$GPGNS,080007.00,4809.62960,N,01707.85695,E,ANNN,07,1.02,110.2,41.4,,,V*03
$GPGGA,080007.00,4809.62960,N,01707.85695,E,1,07,1.02,110.2,M,41.4,M,,*5C
$GPGSA,A,3,12,32,15,06,25,24,19,,,,,,1.76,1.02,1.44,1*14
$GPGSV,3,1,12,02,14,136,,06,23,091,18,10,00,273,,11,08,133,,0*6F
$GPGSV,3,2,12,12,72,277,11,15,12,190,12,17,19,043,,19,37,053,23,0*6D
$GPGSV,3,3,12,22,09,326,,24,75,152,14,25,29,262,12,32,23,314,15,0*64
$GPGLL,4809.62960,N,01707.85695,E,080007.00,A,A*6E
$GPGST,080007.00,4533451,,,,16,8.3,21*66
$GPZDA,080007.00,19,04,2022,00,00*67
$GARMC,,V,,,,,,,,,,N,V*38
$GAVTG,,,,,,,,,N*21
$GAGNS,,,,,,NNNN,00,99.99,,,,,V*08
$GAGGA,,,,,,0,00,99.99,,,,,,*59
$GAGSA,A,1,,,,,,,,,,,,,99.99,99.99,99.99,1*3C
$GAGSA,A,1,,,,,,,,,,,,,99.99,99.99,99.99,3*3E
$GAGSV,1,1,00,0*74
$GAGSV,1,1,00,0*74
$GAGLL,,,,,,V,N*75
$GAGST,,0.0000,,,,3871218,3871218,3871218*6E
$GAZDA,,,,,00,00*59
$GLRMC,080007.00,V,,,,,,,190422,,,N,V*18
$GLVTG,,,,,,,,,N*2C
$GLGNS,080007.00,,,,,NNNN,00,99.99,,,,,V*24
$GLGGA,080007.00,,,,,0,00,99.99,,,,,,*75
$GLGSA,A,1,,,,,,,,,,,,,99.99,99.99,99.99,2*32
$GLGSV,3,1,09,68,15,226,,69,33,278,,70,13,340,,77,17,091,,0*70
$GLGSV,3,2,09,78,66,043,,79,42,301,,81,15,163,,87,38,046,22,0*7C
$GLGSV,3,3,09,88,47,112,15,0*45
$GLGLL,,,,,080007.00,V,N*59
$GLGST,080007.00,0.0000,,,,6666,6388,1095*7C
$GLZDA,080007.00,19,04,2022,00,00*7B
$GBRMC,,V,,,,,,,,,,N,V*3B
$GBVTG,,,,,,,,,N*22
$GBGNS,,,,,,NNNN,00,99.99,,,,,V*0B
$GBGGA,,,,,,0,00,99.99,,,,,,*5A
$GBGSA,A,1,,,,,,,,,,,,,99.99,99.99,99.99,4*3A
$GBGSV,1,1,00,0*77
$GBGLL,,,,,,V,N*76
$GBGST,,0.0000,,,,3871218,3871218,3871218*6D
$GBZDA,,,,,00,00*5A
$GPRMC,080008.00,A,4809.62930,N,01707.85647,E,1.513,,190422,,,A,V*02
$GPVTG,,T,,M,1.513,N,2.802,K,A*2D
$GPGNS,080008.00,4809.62930,N,01707.85647,E,ANNN,07,1.02,107.9,41.4,,,V*0B
$GPGGA,080008.00,4809.62930,N,01707.85647,E,1,07,1.02,107.9,M,41.4,M,,*54
$GPGSA,A,3,12,32,15,06,25,24,19,,,,,,1.76,1.02,1.44,1*14
$GPGSV,3,1,12,02,14,136,,06,23,091,18,10,00,273,,11,08,133,,0*6F
$GPGSV,3,2,12,12,72,277,10,15,12,190,09,17,19,043,07,19,37,053,23,0*61
$GPGSV,3,3,12,22,09,326,,24,75,152,13,25,29,262,08,32,23,314,13,0*6E
$GPGLL,4809.62930,N,01707.85647,E,080008.00,A,A*6B
$GPGST,080008.00,81,,,,16,8.6,21*54
$GPZDA,080008.00,19,04,2022,00,00*68
$GARMC,,V,,,,,,,,,,N,V*38
$GAVTG,,,,,,,,,N*21
$GAGNS,,,,,,NNNN,00,99.99,,,,,V*08
$GAGGA,,,,,,0,00,99.99,,,,,,*59
$GAGSA,A,1,,,,,,,,,,,,,99.99,99.99,99.99,1*3C
$GAGSA,A,1,,,,,,,,,,,,,99.99,99.99,99.99,3*3E
$GAGSV,1,1,00,0*74
$GAGSV,1,1,00,0*74
$GAGLL,,,,,,V,N*75
$GAGST,,0.0000,,,,3871223,3871223,3871223*66
$GAZDA,,,,,00,00*59
$GLRMC,080008.00,V,,,,,,,190422,,,N,V*17
$GLVTG,,,,,,,,,N*2C
$GLGNS,080008.00,,,,,NNNN,00,99.99,,,,,V*2B
$GLGGA,080008.00,,,,,0,00,99.99,,,,,,*7A
$GLGSA,A,1,,,,,,,,,,,,,99.99,99.99,99.99,2*32
$GLGSV,3,1,09,68,15,226,,69,33,277,,70,13,340,,77,17,091,,0*7F
$GLGSV,3,2,09,78,66,043,,79,42,301,,81,15,163,,87,38,046,22,0*7C
$GLGSV,3,3,09,88,47,112,16,0*46
$GLGLL,,,,,080008.00,V,N*56
$GLGST,080008.00,0.0000,,,,6691,6413,1100*73
$GLZDA,080008.00,19,04,2022,00,00*74
$GBRMC,,V,,,,,,,,,,N,V*3B
$GBVTG,,,,,,,,,N*22
$GBGNS,,,,,,NNNN,00,99.99,,,,,V*0B
$GBGGA,,,,,,0,00,99.99,,,,,,*5A
$GBGSA,A,1,,,,,,,,,,,,,99.99,99.99,99.99,4*3A
$GBGSV,1,1,00,0*77
$GBGLL,,,,,,V,N*76
$GBGST,,0.0000,,,,3871223,3871223,3871223*65
$GBZDA,,,,,00,00*5A
$GPRMC,080009.00,A,4809.62941,N,01707.85670,E,1.126,,190422,,,A,V*03
$GPVTG,,T,,M,1.126,N,2.085,K,A*28
$GPGNS,080009.00,4809.62941,N,01707.85670,E,ANNN,06,1.03,107.7,41.4,,,V*06
$GPGGA,080009.00,4809.62941,N,01707.85670,E,1,06,1.03,107.7,M,41.4,M,,*59
$GPGSA,A,3,32,15,06,25,24,19,,,,,,,2.07,1.03,1.79,1*1D
$GPGSV,3,1,12,02,14,136,,06,23,091,17,10,00,273,,11,08,133,,0*60
$GPGSV,3,2,12,12,72,277,09,15,12,190,09,17,19,043,09,19,37,053,21,0*65
$GPGSV,3,3,12,22,09,326,,24,75,152,10,25,29,262,08,32,23,314,12,0*6C
$GPGLL,4809.62941,N,01707.85670,E,080009.00,A,A*68
$GPGST,080009.00,6869113,,,,16,9.0,21*69
$GPZDA,080009.00,19,04,2022,00,00*69
$GARMC,,V,,,,,,,,,,N,V*38
$GAVTG,,,,,,,,,N*21
$GAGNS,,,,,,NNNN,00,99.99,,,,,V*08
$GAGGA,,,,,,0,00,99.99,,,,,,*59
$GAGSA,A,1,,,,,,,,,,,,,99.99,99.99,99.99,1*3C
$GAGSA,A,1,,,,,,,,,,,,,99.99,99.99,99.99,3*3E
$GAGSV,1,1,00,0*74
$GAGSV,1,1,00,0*74
$GAGLL,,,,,,V,N*75
$GAGST,,0.0000,,,,3871228,3871228,3871228*6D
$GAZDA,,,,,00,00*59
$GLRMC,080009.00,V,,,,,,,190422,,,N,V*16
$GLVTG,,,,,,,,,N*2C
$GLGNS,080009.00,,,,,NNNN,00,99.99,,,,,V*2A
$GLGGA,080009.00,,,,,0,00,99.99,,,,,,*7B
$GLGSA,A,1,,,,,,,,,,,,,99.99,99.99,99.99,2*32
$GLGSV,3,1,09,68,15,226,,69,33,277,,70,14,340,,77,17,091,,0*78
$GLGSV,3,2,09,78,66,043,,79,42,301,,81,15,163,,87,38,046,22,0*7C
$GLGSV,3,3,09,88,47,112,17,0*47
$GLGLL,,,,,080009.00,V,N*57
$GLGST,080009.00,0.0000,,,,6717,6438,1104*70
$GLZDA,080009.00,19,04,2022,00,00*75
$GBRMC,,V,,,,,,,,,,N,V*3B
$GBVTG,,,,,,,,,N*22
$GBGNS,,,,,,NNNN,00,99.99,,,,,V*0B
$GBGGA,,,,,,0,00,99.99,,,,,,*5A
$GBGSA,A,1,,,,,,,,,,,,,99.99,99.99,99.99,4*3A
$GBGSV,1,1,00,0*77
$GBGLL,,,,,,V,N*76
$GBGST,,0.0000,,,,3871228,3871228,3871228*6E
$GBZDA,,,,,00,00*5A
$GPRMC,080010.00,A,4809.62947,N,01707.85711,E,1.065,,190422,,,A,V*0D
$GPVTG,,T,,M,1.065,N,1.973,K,A*2D
$GPGNS,080010.00,4809.62947,N,01707.85711,E,ANNN,06,1.03,107.3,41.4,,,V*0A
$GPGGA,080010.00,4809.62947,N,01707.85711,E,1,06,1.03,107.3,M,41.4,M,,*55
$GPGSA,A,3,32,15,06,25,24,19,,,,,,,2.07,1.03,1.79,1*1D
$GPGSV,3,1,12,02,14,136,,06,23,091,16,10,00,273,,11,08,133,,0*61
$GPGSV,3,2,12,12,72,277,07,15,12,190,10,17,19,043,13,19,37,053,21,0*68
$GPGSV,3,3,12,22,09,326,,24,75,152,09,25,29,262,07,32,23,314,11,0*68
$GPGLL,4809.62947,N,01707.85711,E,080010.00,A,A*60
$GPGST,080010.00,6869113,,,,17,9.4,21*64
$GPZDA,080010.00,19,04,2022,00,00*61
$GARMC,,V,,,,,,,,,,N,V*38
$GAVTG,,,,,,,,,N*21
$GAGNS,,,,,,NNNN,00,99.99,,,,,V*08
$GAGGA,,,,,,0,00,99.99,,,,,,*59
$GAGSA,A,1,,,,,,,,,,,,,99.99,99.99,99.99,1*3C
$GAGSA,A,1,,,,,,,,,,,,,99.99,99.99,99.99,3*3E
$GAGSV,1,1,00,0*74
$GAGSV,1,1,00,0*74
$GAGLL,,,,,,V,N*75
$GAGST,,0.0000,,,,3871233,3871233,3871233*67
$GAZDA,,,,,00,00*59
$GLRMC,080010.00,V,,,,,,,190422,,,N,V*1E
$GLVTG,,,,,,,,,N*2C
$GLGNS,080010.00,,,,,NNNN,00,99.99,,,,,V*22
$GLGGA,080010.00,,,,,0,00,99.99,,,,,,*73
$GLGSA,A,1,,,,,,,,,,,,,99.99,99.99,99.99,2*32
$GLGSV,3,1,09,68,15,226,,69,33,277,,70,14,340,,77,17,091,,0*78
$GLGSV,3,2,09,78,66,043,,79,42,301,,81,15,163,,87,38,046,22,0*7C
$GLGSV,3,3,09,88,47,112,18,0*48
$GLGLL,,,,,080010.00,V,N*5F
$GLGST,080010.00,0.0000,,,,6742,6463,1108*7A
$GLZDA,080010.00,19,04,2022,00,00*7D
$GBRMC,,V,,,,,,,,,,N,V*3B
$GBVTG,,,,,,,,,N*22
$GBGNS,,,,,,NNNN,00,99.99,,,,,V*0B
$GBGGA,,,,,,0,00,99.99,,,,,,*5A
$GBGSA,A,1,,,,,,,,,,,,,99.99,99.99,99.99,4*3A
$GBGSV,1,1,00,0*77
$GBGLL,,,,,,V,N*76
$GBGST,,0.0000,,,,3871233,3871233,3871233*64
$GBZDA,,,,,00,00*5A
$GPRMC,080011.00,A,4809.62955,N,01707.85733,E,0.419,,190422,,,A,V*01
$GPVTG,,T,,M,0.419,N,0.776,K,A*29
$GPGNS,080011.00,4809.62955,N,01707.85733,E,ANNN,07,1.02,108.0,41.4,,,V*04
$GPGGA,080011.00,4809.62955,N,01707.85733,E,1,07,1.02,108.0,M,41.4,M,,*5B
$GPGSA,A,3,12,32,15,06,25,24,19,,,,,,1.76,1.02,1.44,1*14
$GPGSV,3,1,12,02,14,136,,06,23,091,17,10,00,273,,11,08,133,,0*60
$GPGSV,3,2,12,12,72,277,08,15,12,190,11,17,19,043,16,19,37,053,22,0*60
$GPGSV,3,3,12,22,09,326,,24,75,152,12,25,29,262,08,32,23,314,12,0*6E
$GPGLL,4809.62955,N,01707.85733,E,080011.00,A,A*62
$GPGST,080011.00,101,,,,17,9.7,21*64
$GPZDA,080011.00,19,04,2022,00,00*60
$GARMC,,V,,,,,,,,,,N,V*38
$GAVTG,,,,,,,,,N*21
$GAGNS,,,,,,NNNN,00,99.99,,,,,V*08
$GAGGA,,,,,,0,00,99.99,,,,,,*59
$GAGSA,A,1,,,,,,,,,,,,,99.99,99.99,99.99,1*3C
$GAGSA,A,1,,,,,,,,,,,,,99.99,99.99,99.99,3*3E
$GAGSV,1,1,00,0*74
$GAGSV,1,1,00,0*74
$GAGLL,,,,,,V,N*75
$GAGST,,0.0000,,,,3871238,3871238,3871238*6C
$GAZDA,,,,,00,00*59
$GLRMC,080011.00,V,,,,,,,190422,,,N,V*1F
$GLVTG,,,,,,,,,N*2C
$GLGNS,080011.00,,,,,NNNN,00,99.99,,,,,V*23
$GLGGA,080011.00,,,,,0,00,99.99,,,,,,*72
$GLGSA,A,1,,,,,,,,,,,,,99.99,99.99,99.99,2*32
$GLGSV,3,1,09,68,15,226,,69,33,277,,70,14,340,,77,17,091,,0*78
$GLGSV,3,2,09,78,66,043,,79,42,301,,81,15,163,,87,38,046,24,0*7A
$GLGSV,3,3,09,88,47,112,20,0*43
$GLGLL,,,,,080011.00,V,N*5E
$GLGST,080011.00,0.0000,,,,6768,6488,1112*7D
$GLZDA,080011.00,19,04,2022,00,00*7C
$GBRMC,,V,,,,,,,,,,N,V*3B
$GBVTG,,,,,,,,,N*22
$GBGNS,,,,,,NNNN,00,99.99,,,,,V*0B
$GBGGA,,,,,,0,00,99.99,,,,,,*5A
$GBGSA,A,1,,,,,,,,,,,,,99.99,99.99,99.99,4*3A
$GBGSV,1,1,00,0*77
$GBGLL,,,,,,V,N*76
$GBGST,,0.0000,,,,3871238,3871238,3871238*6F
$GBZDA,,,,,00,00*5A
$GPRMC,080012.00,A,4809.62977,N,01707.85717,E,0.481,,190422,,,A,V*05
$GPVTG,,T,,M,0.481,N,0.891,K,A*2E
$GPGNS,080012.00,4809.62977,N,01707.85717,E,ANNN,08,0.93,108.0,41.4,,,V*07
$GPGGA,080012.00,4809.62977,N,01707.85717,E,1,08,0.93,108.0,M,41.4,M,,*58
$GPGSA,A,3,12,32,15,17,06,25,24,19,,,,,1.64,0.93,1.35,1*1E
$GPGSV,3,1,12,02,14,136,,06,23,091,20,10,00,273,,11,08,133,,0*64
$GPGSV,3,2,12,12,72,277,18,15,12,190,10,17,19,043,20,19,37,053,29,0*6E
$GPGSV,3,3,12,22,09,326,,24,75,152,13,25,29,262,15,32,23,314,17,0*66
$GPGLL,4809.62977,N,01707.85717,E,080012.00,A,A*67
$GPGST,080012.00,5973529,,,,17,9.9,21*6F
$GPZDA,080012.00,19,04,2022,00,00*63
$GARMC,,V,,,,,,,,,,N,V*38
$GAVTG,,,,,,,,,N*21
$GAGNS,,,,,,NNNN,00,99.99,,,,,V*08
$GAGGA,,,,,,0,00,99.99,,,,,,*59
$GAGSA,A,1,,,,,,,,,,,,,99.99,99.99,99.99,1*3C
$GAGSA,A,1,,,,,,,,,,,,,99.99,99.99,99.99,3*3E
$GAGSV,1,1,00,0*74
$GAGSV,1,1,00,0*74
$GAGLL,,,,,,V,N*75
$GAGST,,0.0000,,,,3871243,3871243,3871243*60
$GAZDA,,,,,00,00*59
$GLRMC,080012.00,V,,,,,,,190422,,,N,V*1C
$GLVTG,,,,,,,,,N*2C
$GLGNS,080012.00,,,,,NNNN,00,99.99,,,,,V*20
$GLGGA,080012.00,,,,,0,00,99.99,,,,,,*71
$GLGSA,A,1,,,,,,,,,,,,,99.99,99.99,99.99,2*32
$GLGSV,3,1,09,68,15,226,,69,33,277,,70,14,340,,77,17,091,,0*78
$GLGSV,3,2,09,78,66,043,,79,42,301,,81,15,163,,87,38,046,25,0*7B
$GLGSV,3,3,09,88,47,112,23,0*40
$GLGLL,,,,,080012.00,V,N*5D
$GLGST,080012.00,0.0000,,,,6793,6512,1117*7D
$GLZDA,080012.00,19,04,2022,00,00*7F
$GBRMC,,V,,,,,,,,,,N,V*3B
$GBVTG,,,,,,,,,N*22
$GBGNS,,,,,,NNNN,00,99.99,,,,,V*0B
$GBGGA,,,,,,0,00,99.99,,,,,,*5A
$GBGSA,A,1,,,,,,,,,,,,,99.99,99.99,99.99,4*3A
$GBGSV,1,1,00,0*77
$GBGLL,,,,,,V,N*76
$GBGST,,0.0000,,,,3871243,3871243,3871243*63
$GBZDA,,,,,00,00*5A
$GPRMC,080013.00,A,4809.62955,N,01707.85682,E,0.295,,190422,,,A,V*0A
$GPVTG,,T,,M,0.295,N,0.547,K,A*2B
$GPGNS,080013.00,4809.62955,N,01707.85682,E,ANNN,08,0.93,107.8,41.4,,,V*0C
$GPGGA,080013.00,4809.62955,N,01707.85682,E,1,08,0.93,107.8,M,41.4,M,,*53
$GPGSA,A,3,12,32,15,17,06,25,24,19,,,,,1.64,0.93,1.35,1*1E
$GPGSV,3,1,12,02,14,136,,06,23,091,20,10,00,273,,11,08,133,,0*64
$GPGSV,3,2,12,12,72,277,20,15,12,190,09,17,19,043,20,19,37,053,28,0*6C
$GPGSV,3,3,12,22,09,326,,24,75,152,16,25,29,262,12,32,23,314,19,0*6A
$GPGLL,4809.62955,N,01707.85682,E,080013.00,A,A*6B
$GPGST,080013.00,5973529,,,,18,10,21*4E
$GPZDA,080013.00,19,04,2022,00,00*62
$GARMC,,V,,,,,,,,,,N,V*38
$GAVTG,,,,,,,,,N*21
$GAGNS,,,,,,NNNN,00,99.99,,,,,V*08
$GAGGA,,,,,,0,00,99.99,,,,,,*59
$GAGSA,A,1,,,,,,,,,,,,,99.99,99.99,99.99,1*3C
$GAGSA,A,1,,,,,,,,,,,,,99.99,99.99,99.99,3*3E
$GAGSV,1,1,00,0*74
$GAGSV,1,1,00,0*74
$GAGLL,,,,,,V,N*75
$GAGST,,0.0000,,,,3871248,3871248,3871248*6B
$GAZDA,,,,,00,00*59
$GLRMC,080013.00,V,,,,,,,190422,,,N,V*1D
$GLVTG,,,,,,,,,N*2C
$GLGNS,080013.00,,,,,NNNN,00,99.99,,,,,V*21
$GLGGA,080013.00,,,,,0,00,99.99,,,,,,*70
$GLGSA,A,1,,,,,,,,,,,,,99.99,99.99,99.99,2*32
$GLGSV,3,1,09,68,15,226,,69,33,277,,70,14,340,,77,17,091,,0*78
$GLGSV,3,2,09,78,66,043,,79,42,301,,81,15,163,,87,38,046,26,0*78
$GLGSV,3,3,09,88,47,112,23,0*40
$GLGLL,,,,,080013.00,V,N*5C
$GLGST,080013.00,0.0000,,,,6819,6537,1121*73
$GLZDA,080013.00,19,04,2022,00,00*7E
$GBRMC,,V,,,,,,,,,,N,V*3B
$GBVTG,,,,,,,,,N*22
$GBGNS,,,,,,NNNN,00,99.99,,,,,V*0B
$GBGGA,,,,,,0,00,99.99,,,,,,*5A
$GBGSA,A,1,,,,,,,,,,,,,99.99,99.99,99.99,4*3A
$GBGSV,1,1,00,0*77
$GBGLL,,,,,,V,N*76
$GBGST,,0.0000,,,,3871248,3871248,3871248*68
$GBZDA,,,,,00,00*5A
$GPRMC,080014.00,A,4809.63035,N,01707.85695,E,0.519,,190422,,,A,V*06
$GPVTG,,T,,M,0.519,N,0.961,K,A*20
$GPGNS,080014.00,4809.63035,N,01707.85695,E,ANNN,07,0.93,108.9,41.4,,,V*02
$GPGGA,080014.00,4809.63035,N,01707.85695,E,1,07,0.93,108.9,M,41.4,M,,*5D
$GPGSA,A,3,32,15,17,06,25,24,19,,,,,,1.91,0.93,1.67,1*10
$GPGSV,3,1,12,02,14,136,,06,23,091,18,10,00,273,,11,08,133,,0*6F
$GPGSV,3,2,12,12,73,278,03,15,12,190,09,17,19,043,19,19,37,053,25,0*64
$GPGSV,3,3,12,22,09,326,,24,75,152,11,25,29,262,11,32,23,314,17,0*60
$GPGLL,4809.63035,N,01707.85695,E,080014.00,A,A*64
$GPGST,080014.00,85,,,,18,10,21*72
$GPZDA,080014.00,19,04,2022,00,00*65
$GARMC,,V,,,,,,,,,,N,V*38
$GAVTG,,,,,,,,,N*21
$GAGNS,,,,,,NNNN,00,99.99,,,,,V*08
$GAGGA,,,,,,0,00,99.99,,,,,,*59
$GAGSA,A,1,,,,,,,,,,,,,99.99,99.99,99.99,1*3C
$GAGSA,A,1,,,,,,,,,,,,,99.99,99.99,99.99,3*3E
$GAGSV,1,1,00,0*74
$GAGSV,1,1,00,0*74
$GAGLL,,,,,,V,N*75
$GAGST,,0.0000,,,,3871253,3871253,3871253*61
$GAZDA,,,,,00,00*59
$GLRMC,080014.00,V,,,,,,,190422,,,N,V*1A
$GLVTG,,,,,,,,,N*2C
$GLGNS,080014.00,,,,,NNNN,00,99.99,,,,,V*26
$GLGGA,080014.00,,,,,0,00,99.99,,,,,,*77
$GLGSA,A,1,,,,,,,,,,,,,99.99,99.99,99.99,2*32
$GLGSV,3,1,09,68,15,226,,69,33,277,,70,14,340,,77,17,091,,0*78
$GLGSV,3,2,09,78,66,043,,79,42,301,,81,15,163,,87,38,046,25,0*7B
$GLGSV,3,3,09,88,47,112,23,0*40
$GLGLL,,,,,080014.00,V,N*5B
$GLGST,080014.00,0.0000,,,,6845,6562,1125*79
$GLZDA,080014.00,19,04,2022,00,00*79
$GBRMC,,V,,,,,,,,,,N,V*3B
$GBVTG,,,,,,,,,N*22
$GBGNS,,,,,,NNNN,00,99.99,,,,,V*0B
$GBGGA,,,,,,0,00,99.99,,,,,,*5A
$GBGSA,A,1,,,,,,,,,,,,,99.99,99.99,99.99,4*3A
$GBGSV,1,1,00,0*77
$GBGLL,,,,,,V,N*76
$GBGST,,0.0000,,,,3871253,3871253,3871253*62
$GBZDA,,,,,00,00*5A
$GPRMC,080015.00,A,4809.63060,N,01707.85645,E,0.721,,190422,,,A,V*03
$GPVTG,,T,,M,0.721,N,1.335,K,A*23
$GPGNS,080015.00,4809.63060,N,01707.85645,E,ANNN,06,1.49,108.8,41.4,,,V*08
$GPGGA,080015.00,4809.63060,N,01707.85645,E,1,06,1.49,108.8,M,41.4,M,,*57
$GPGSA,A,3,32,17,06,25,24,19,,,,,,,2.81,1.49,2.38,1*19
$GPGSV,3,1,12,02,14,136,,06,23,091,18,10,00,273,,11,08,133,,0*6F
$GPGSV,3,2,12,12,73,278,08,15,12,190,07,17,19,043,18,19,37,053,25,0*60
$GPGSV,3,3,12,22,09,326,,24,75,152,13,25,29,262,08,32,23,314,16,0*6B
$GPGLL,4809.63060,N,01707.85645,E,080015.00,A,A*68
$GPGST,080015.00,4858093,,,,18,10,21*45
$GPZDA,080015.00,19,04,2022,00,00*64
$GARMC,,V,,,,,,,,,,N,V*38
$GAVTG,,,,,,,,,N*21
$GAGNS,,,,,,NNNN,00,99.99,,,,,V*08
$GAGGA,,,,,,0,00,99.99,,,,,,*59
$GAGSA,A,1,,,,,,,,,,,,,99.99,99.99,99.99,1*3C
$GAGSA,A,1,,,,,,,,,,,,,99.99,99.99,99.99,3*3E
$GAGSV,1,1,00,0*74
$GAGSV,1,1,00,0*74
$GAGLL,,,,,,V,N*75
$GAGST,,0.0000,,,,3871258,3871258,3871258*6A
$GAZDA,,,,,00,00*59
$GLRMC,080015.00,V,,,,,,,190422,,,N,V*1B
$GLVTG,,,,,,,,,N*2C
$GLGNS,080015.00,,,,,NNNN,00,99.99,,,,,V*27
$GLGGA,080015.00,,,,,0,00,99.99,,,,,,*76
$GLGSA,A,1,,,,,,,,,,,,,99.99,99.99,99.99,2*32
$GLGSV,3,1,09,68,15,226,,69,33,277,,70,14,340,,77,17,091,,0*78
$GLGSV,3,2,09,78,66,043,,79,42,301,,81,15,163,,87,38,046,26,0*78
$GLGSV,3,3,09,88,47,112,25,0*46
$GLGLL,,,,,080015.00,V,N*5A
$GLGST,080015.00,0.0000,,,,6870,6587,1129*79
$GLZDA,080015.00,19,04,2022,00,00*78
$GBRMC,,V,,,,,,,,,,N,V*3B
$GBVTG,,,,,,,,,N*22
$GBGNS,,,,,,NNNN,00,99.99,,,,,V*0B
$GBGGA,,,,,,0,00,99.99,,,,,,*5A
$GBGSA,A,1,,,,,,,,,,,,,99.99,99.99,99.99,4*3A
$GBGSV,1,1,00,0*77
$GBGLL,,,,,,V,N*76
$GBGST,,0.0000,,,,3871258,3871258,3871258*69
$GBZDA,,,,,00,00*5A
$GPRMC,080016.00,A,4809.63005,N,01707.85651,E,0.283,,190422,,,A,V*0B
$GPVTG,,T,,M,0.283,N,0.523,K,A*2E
$GPGNS,080016.00,4809.63005,N,01707.85651,E,ANNN,08,0.93,108.8,41.4,,,V*05
$GPGGA,080016.00,4809.63005,N,01707.85651,E,1,08,0.93,108.8,M,41.4,M,,*5A
$GPGSA,A,3,12,32,15,17,06,25,24,19,,,,,1.64,0.93,1.35,1*1E
$GPGSV,3,1,12,02,14,136,,06,23,091,20,10,00,273,,11,08,133,,0*64
$GPGSV,3,2,12,12,73,278,14,15,12,190,11,17,19,043,20,19,37,053,27,0*63
$GPGSV,3,3,12,22,09,326,,24,75,152,14,25,29,262,10,32,23,314,18,0*6B
$GPGLL,4809.63005,N,01707.85651,E,080016.00,A,A*6D
$GPGST,080016.00,5950064,,,,19,10,21*47
$GPZDA,080016.00,19,04,2022,00,00*67
$GARMC,,V,,,,,,,,,,N,V*38
$GAVTG,,,,,,,,,N*21
$GAGNS,,,,,,NNNN,00,99.99,,,,,V*08
$GAGGA,,,,,,0,00,99.99,,,,,,*59
$GAGSA,A,1,,,,,,,,,,,,,99.99,99.99,99.99,1*3C
$GAGSA,A,1,,,,,,,,,,,,,99.99,99.99,99.99,3*3E
$GAGSV,1,1,00,0*74
$GAGSV,1,1,00,0*74
$GAGLL,,,,,,V,N*75
$GAGST,,0.0000,,,,3871263,3871263,3871263*62
$GAZDA,,,,,00,00*59
$GLRMC,080016.00,V,,,,,,,190422,,,N,V*18
$GLVTG,,,,,,,,,N*2C
$GLGNS,080016.00,,,,,NNNN,00,99.99,,,,,V*24
$GLGGA,080016.00,,,,,0,00,99.99,,,,,,*75
$GLGSA,A,1,,,,,,,,,,,,,99.99,99.99,99.99,2*32
$GLGSV,3,1,09,68,15,226,,69,33,277,,70,14,340,,77,17,091,,0*78
$GLGSV,3,2,09,78,66,043,,79,42,301,,81,15,163,,87,38,046,26,0*78
$GLGSV,3,3,09,88,47,112,25,0*46
$GLGLL,,,,,080016.00,V,N*59
$GLGST,080016.00,0.0000,,,,6896,6612,1134*71
$GLZDA,080016.00,19,04,2022,00,00*7B
$GBRMC,,V,,,,,,,,,,N,V*3B
$GBVTG,,,,,,,,,N*22
$GBGNS,,,,,,NNNN,00,99.99,,,,,V*0B
$GBGGA,,,,,,0,00,99.99,,,,,,*5A
$GBGSA,A,1,,,,,,,,,,,,,99.99,99.99,99.99,4*3A
$GBGSV,1,1,00,0*77
$GBGLL,,,,,,V,N*76
$GBGST,,0.0000,,,,3871263,3871263,3871263*61
$GBZDA,,,,,00,00*5A
$GPRMC,080017.00,A,4809.63016,N,01707.85610,E,0.101,,190422,,,A,V*04
$GPVTG,,T,,M,0.101,N,0.188,K,A*22
$GPGNS,080017.00,4809.63016,N,01707.85610,E,ANNN,08,0.93,109.0,41.4,,,V*0A
$GPGGA,080017.00,4809.63016,N,01707.85610,E,1,08,0.93,109.0,M,41.4,M,,*55
$GPGSA,A,3,12,32,15,17,06,25,24,19,,,,,1.64,0.93,1.35,1*1E
$GPGSV,3,1,12,02,14,136,,06,23,091,21,10,00,273,,11,08,133,,0*65
$GPGSV,3,2,12,12,73,278,17,15,12,190,10,17,19,043,21,19,37,053,28,0*6F
$GPGSV,3,3,12,22,09,326,,24,75,152,11,25,29,262,09,32,23,314,20,0*6D
$GPGLL,4809.63016,N,01707.85610,E,080017.00,A,A*6B
$GPGST,080017.00,105,,,,18,10,21*48
$GPZDA,080017.00,19,04,2022,00,00*66
$GARMC,,V,,,,,,,,,,N,V*38
$GAVTG,,,,,,,,,N*21
$GAGNS,,,,,,NNNN,00,99.99,,,,,V*08
$GAGGA,,,,,,0,00,99.99,,,,,,*59
$GAGSA,A,1,,,,,,,,,,,,,99.99,99.99,99.99,1*3C
$GAGSA,A,1,,,,,,,,,,,,,99.99,99.99,99.99,3*3E
$GAGSV,1,1,00,0*74
$GAGSV,1,1,00,0*74
$GAGLL,,,,,,V,N*75
$GAGST,,0.0000,,,,3871268,3871268,3871268*69
$GAZDA,,,,,00,00*59
$GLRMC,080017.00,V,,,,,,,190422,,,N,V*19
$GLVTG,,,,,,,,,N*2C
$GLGNS,080017.00,,,,,NNNN,00,99.99,,,,,V*25
$GLGGA,080017.00,,,,,0,00,99.99,,,,,,*74
$GLGSA,A,1,,,,,,,,,,,,,99.99,99.99,99.99,2*32
$GLGSV,3,1,09,68,15,226,,69,33,277,,70,14,340,,77,17,091,,0*78
$GLGSV,3,2,09,78,66,044,,79,42,301,,81,15,163,,87,38,046,26,0*7F
$GLGSV,3,3,09,88,47,112,25,0*46
$GLGLL,,,,,080017.00,V,N*58
$GLGST,080017.00,0.0000,,,,6921,6636,1138*77
$GLZDA,080017.00,19,04,2022,00,00*7A
$GBRMC,,V,,,,,,,,,,N,V*3B
$GBVTG,,,,,,,,,N*22
$GBGNS,,,,,,NNNN,00,99.99,,,,,V*0B
$GBGGA,,,,,,0,00,99.99,,,,,,*5A
$GBGSA,A,1,,,,,,,,,,,,,99.99,99.99,99.99,4*3A
$GBGSV,1,1,00,0*77
$GBGLL,,,,,,V,N*76
$GBGST,,0.0000,,,,3871268,3871268,3871268*6A
$GBZDA,,,,,00,00*5A
$GPRMC,080018.00,A,4809.62929,N,01707.85554,E,0.317,,190422,,,A,V*09
$GPVTG,,T,,M,0.317,N,0.587,K,A*2C
$GPGNS,080018.00,4809.62929,N,01707.85554,E,ANNN,08,0.93,108.8,41.4,,,V*0B
$GPGGA,080018.00,4809.62929,N,01707.85554,E,1,08,0.93,108.8,M,41.4,M,,*54
$GPGSA,A,3,12,32,15,17,06,25,24,19,,,,,1.64,0.93,1.35,1*1E
$GPGSV,3,1,12,02,14,136,,06,23,091,21,10,00,273,,11,08,133,,0*65
$GPGSV,3,2,12,12,73,278,18,15,12,190,11,17,19,043,21,19,37,053,28,0*61
$GPGSV,3,3,12,22,09,326,,24,75,152,10,25,29,262,13,32,23,314,20,0*67
$GPGLL,4809.62929,N,01707.85554,E,080018.00,A,A*63
$GPGST,080018.00,770846,,,,18,10,21*79
$GPZDA,080018.00,19,04,2022,00,00*69
$GARMC,,V,,,,,,,,,,N,V*38
$GAVTG,,,,,,,,,N*21
$GAGNS,,,,,,NNNN,00,99.99,,,,,V*08
$GAGGA,,,,,,0,00,99.99,,,,,,*59
$GAGSA,A,1,,,,,,,,,,,,,99.99,99.99,99.99,1*3C
$GAGSA,A,1,,,,,,,,,,,,,99.99,99.99,99.99,3*3E
$GAGSV,1,1,00,0*74
$GAGSV,1,1,00,0*74
$GAGLL,,,,,,V,N*75
$GAGST,,0.0000,,,,3871273,3871273,3871273*63
$GAZDA,,,,,00,00*59
$GLRMC,080018.00,V,,,,,,,190422,,,N,V*16
$GLVTG,,,,,,,,,N*2C
$GLGNS,080018.00,,,,,NNNN,00,99.99,,,,,V*2A
$GLGGA,080018.00,,,,,0,00,99.99,,,,,,*7B
$GLGSA,A,1,,,,,,,,,,,,,99.99,99.99,99.99,2*32
$GLGSV,3,1,09,68,15,226,,69,33,277,,70,14,340,,77,17,091,,0*78
$GLGSV,3,2,09,78,66,044,,79,42,302,,81,15,163,,87,38,046,26,0*7C
$GLGSV,3,3,09,88,47,112,25,0*46
$GLGLL,,,,,080018.00,V,N*57
$GLGST,080018.00,0.0000,,,,6947,6661,1142*77
$GLZDA,080018.00,19,04,2022,00,00*75
$GBRMC,,V,,,,,,,,,,N,V*3B
$GBVTG,,,,,,,,,N*22
$GBGNS,,,,,,NNNN,00,99.99,,,,,V*0B
$GBGGA,,,,,,0,00,99.99,,,,,,*5A
$GBGSA,A,1,,,,,,,,,,,,,99.99,99.99,99.99,4*3A
$GBGSV,1,1,00,0*77
$GBGLL,,,,,,V,N*76
$GBGST,,0.0000,,,,3871273,3871273,3871273*60
$GBZDA,,,,,00,00*5A
$GPRMC,080019.00,A,4809.63000,N,01707.85529,E,0.393,,190422,,,A,V*0D
$GPVTG,,T,,M,0.393,N,0.729,K,A*26
$GPGNS,080019.00,4809.63000,N,01707.85529,E,ANNN,08,0.93,108.3,41.4,,,V*08
$GPGGA,080019.00,4809.63000,N,01707.85529,E,1,08,0.93,108.3,M,41.4,M,,*57
$GPGSA,A,3,12,32,15,17,06,25,24,19,,,,,1.64,0.93,1.35,1*1E
$GPGSV,3,1,12,02,14,136,,06,23,091,22,10,00,273,,11,08,133,,0*66
$GPGSV,3,2,12,12,73,278,19,15,12,190,09,17,19,043,22,19,37,053,28,0*6A
$GPGSV,3,3,12,22,09,326,,24,75,152,13,25,29,262,12,32,23,314,20,0*65
$GPGLL,4809.63000,N,01707.85529,E,080019.00,A,A*6B
$GPGST,080019.00,774753,,,,18,10,21*77
$GPZDA,080019.00,19,04,2022,00,00*68
$GARMC,,V,,,,,,,,,,N,V*38
$GAVTG,,,,,,,,,N*21
$GAGNS,,,,,,NNNN,00,99.99,,,,,V*08
$GAGGA,,,,,,0,00,99.99,,,,,,*59
$GAGSA,A,1,,,,,,,,,,,,,99.99,99.99,99.99,1*3C
$GAGSA,A,1,,,,,,,,,,,,,99.99,99.99,99.99,3*3E
$GAGSV,1,1,00,0*74
$GAGSV,1,1,00,0*74
$GAGLL,,,,,,V,N*75
$GAGST,,0.0000,,,,3871278,3871278,3871278*68
$GAZDA,,,,,00,00*59
$GLRMC,080019.00,V,,,,,,,190422,,,N,V*17
$GLVTG,,,,,,,,,N*2C
$GLGNS,080019.00,,,,,NNNN,00,99.99,,,,,V*2B
$GLGGA,080019.00,,,,,0,00,99.99,,,,,,*7A
$GLGSA,A,1,,,,,,,,,,,,,99.99,99.99,99.99,2*32
$GLGSV,3,1,09,68,15,226,,69,33,277,,70,14,340,,77,17,091,,0*78
$GLGSV,3,2,09,78,66,044,,79,42,302,,81,15,163,,87,38,046,26,0*7C
$GLGSV,3,3,09,88,47,112,24,0*47
$GLGLL,,,,,080019.00,V,N*56
$GLGST,080019.00,0.0000,,,,6973,6686,1146*7C
$GLZDA,080019.00,19,04,2022,00,00*74
$GBRMC,,V,,,,,,,,,,N,V*3B
$GBVTG,,,,,,,,,N*22
$GBGNS,,,,,,NNNN,00,99.99,,,,,V*0B
$GBGGA,,,,,,0,00,99.99,,,,,,*5A
$GBGSA,A,1,,,,,,,,,,,,,99.99,99.99,99.99,4*3A
$GBGSV,1,1,00,0*77
$GBGLL,,,,,,V,N*76
$GBGST,,0.0000,,,,3871278,3871278,3871278*6B
$GBZDA,,,,,00,00*5A
$GPRMC,080020.00,A,4809.62928,N,01707.85488,E,0.525,,190422,,,A,V*04
$GPVTG,,T,,M,0.525,N,0.972,K,A*2D
$GPGNS,080020.00,4809.62928,N,01707.85488,E,ANNN,08,0.93,106.3,41.4,,,V*04
$GPGGA,080020.00,4809.62928,N,01707.85488,E,1,08,0.93,106.3,M,41.4,M,,*5B
$GPGSA,A,3,12,32,15,17,06,25,24,19,,,,,1.64,0.93,1.35,1*1E
$GPGSV,3,1,12,02,14,136,,06,23,091,21,10,00,273,,11,08,133,,0*65
$GPGSV,3,2,12,12,73,278,18,15,12,190,12,17,19,043,22,19,37,053,28,0*61
$GPGSV,3,3,12,22,09,326,,24,75,152,10,25,29,262,10,32,23,314,20,0*64
$GPGLL,4809.62928,N,01707.85488,E,080020.00,A,A*69
$GPGST,080020.00,76,,,,18,10,21*79
$GPZDA,080020.00,19,04,2022,00,00*62
$GARMC,,V,,,,,,,,,,N,V*38
$GAVTG,,,,,,,,,N*21
$GAGNS,,,,,,NNNN,00,99.99,,,,,V*08
$GAGGA,,,,,,0,00,99.99,,,,,,*59
$GAGSA,A,1,,,,,,,,,,,,,99.99,99.99,99.99,1*3C
$GAGSA,A,1,,,,,,,,,,,,,99.99,99.99,99.99,3*3E
$GAGSV,1,1,00,0*74
$GAGSV,1,1,00,0*74
$GAGLL,,,,,,V,N*75
$GAGST,,0.0000,,,,3871283,3871283,3871283*6C
$GAZDA,,,,,00,00*59
$GLRMC,080020.00,V,,,,,,,190422,,,N,V*1D
$GLVTG,,,,,,,,,N*2C
$GLGNS,080020.00,,,,,NNNN,00,99.99,,,,,V*21
$GLGGA,080020.00,,,,,0,00,99.99,,,,,,*70
$GLGSA,A,1,,,,,,,,,,,,,99.99,99.99,99.99,2*32
$GLGSV,3,1,09,68,15,226,,69,33,277,,70,14,340,,77,17,091,,0*78
$GLGSV,3,2,09,78,66,044,,79,42,302,,81,16,163,,87,38,046,25,0*7C
$GLGSV,3,3,09,88,47,112,23,0*40
$GLGLL,,,,,080020.00,V,N*5C
$GLGST,080020.00,0.0000,,,,6998,6711,1151*7A
$GLZDA,080020.00,19,04,2022,00,00*7E
$GBRMC,,V,,,,,,,,,,N,V*3B
$GBVTG,,,,,,,,,N*22
$GBGNS,,,,,,NNNN,00,99.99,,,,,V*0B
$GBGGA,,,,,,0,00,99.99,,,,,,*5A
$GBGSA,A,1,,,,,,,,,,,,,99.99,99.99,99.99,4*3A
$GBGSV,1,1,00,0*77
$GBGLL,,,,,,V,N*76
$GBGST,,0.0000,,,,3871283,3871283,3871283*6F
$GBZDA,,,,,00,00*5A
$GPRMC,080021.00,A,4809.62909,N,01707.85508,E,0.174,,190422,,,A,V*0F
$GPVTG,,T,,M,0.174,N,0.322,K,A*22
$GPGNS,080021.00,4809.62909,N,01707.85508,E,ANNN,08,0.93,106.0,41.4,,,V*0C
$GPGGA,080021.00,4809.62909,N,01707.85508,E,1,08,0.93,106.0,M,41.4,M,,*53
$GPGSA,A,3,12,32,15,17,06,25,24,19,,,,,1.64,0.93,1.35,1*1E
$GPGSV,3,1,12,02,14,136,,06,23,091,21,10,00,273,,11,08,133,,0*65
$GPGSV,3,2,12,12,73,278,16,15,12,190,08,17,19,043,20,19,37,053,27,0*69
$GPGSV,3,3,12,22,09,326,,24,75,152,12,25,29,262,09,32,23,314,19,0*64
$GPGLL,4809.62909,N,01707.85508,E,080021.00,A,A*62
$GPGST,080021.00,7284638,,,,18,10,21*4D
$GPZDA,080021.00,19,04,2022,00,00*63
$GARMC,,V,,,,,,,,,,N,V*38
$GAVTG,,,,,,,,,N*21
$GAGNS,,,,,,NNNN,00,99.99,,,,,V*08
$GAGGA,,,,,,0,00,99.99,,,,,,*59
$GAGSA,A,1,,,,,,,,,,,,,99.99,99.99,99.99,1*3C
$GAGSA,A,1,,,,,,,,,,,,,99.99,99.99,99.99,3*3E
$GAGSV,1,1,00,0*74
$GAGSV,1,1,00,0*74
$GAGLL,,,,,,V,N*75
$GAGST,,0.0000,,,,3871288,3871288,3871288*67
$GAZDA,,,,,00,00*59
$GLRMC,080021.00,V,,,,,,,190422,,,N,V*1C
$GLVTG,,,,,,,,,N*2C
$GLGNS,080021.00,,,,,NNNN,00,99.99,,,,,V*20
$GLGGA,080021.00,,,,,0,00,99.99,,,,,,*71
$GLGSA,A,1,,,,,,,,,,,,,99.99,99.99,99.99,2*32
$GLGSV,3,1,09,68,15,226,,69,33,277,,70,14,340,,77,17,091,,0*78
$GLGSV,3,2,09,78,66,044,,79,42,302,,81,16,163,,87,38,046,25,0*7C
$GLGSV,3,3,09,88,47,112,23,0*40
$GLGLL,,,,,080021.00,V,N*5D
$GLGST,080021.00,0.0000,,,,7024,6736,1155*75
$GLZDA,080021.00,19,04,2022,00,00*7F
$GBRMC,,V,,,,,,,,,,N,V*3B
$GBVTG,,,,,,,,,N*22
$GBGNS,,,,,,NNNN,00,99.99,,,,,V*0B
$GBGGA,,,,,,0,00,99.99,,,,,,*5A
$GBGSA,A,1,,,,,,,,,,,,,99.99,99.99,99.99,4*3A
$GBGSV,1,1,00,0*77
$GBGLL,,,,,,V,N*76
$GBGST,,0.0000,,,,3871288,3871288,3871288*64
$GBZDA,,,,,00,00*5A
$GPRMC,080022.00,A,4809.62898,N,01707.85540,E,0.277,,190422,,,A,V*09
$GPVTG,,T,,M,0.277,N,0.514,K,A*21
$GPGNS,080022.00,4809.62898,N,01707.85540,E,ANNN,07,1.45,105.3,41.4,,,V*0F
$GPGGA,080022.00,4809.62898,N,01707.85540,E,1,07,1.45,105.3,M,41.4,M,,*50
$GPGSA,A,3,12,32,17,06,25,24,19,,,,,,2.38,1.45,1.89,1*1D
$GPGSV,3,1,12,02,14,136,,06,23,091,20,10,00,273,,11,08,133,,0*64
$GPGSV,3,2,12,12,73,278,14,15,12,190,07,17,19,043,21,19,37,053,27,0*65
$GPGSV,3,3,12,22,09,326,,24,75,152,08,25,29,262,10,32,23,314,19,0*67
$GPGLL,4809.62898,N,01707.85540,E,080022.00,A,A*64
$GPGST,080022.00,6358554,,,,18,10,21*46
$GPZDA,080022.00,19,04,2022,00,00*60
$GARMC,,V,,,,,,,,,,N,V*38
$GAVTG,,,,,,,,,N*21
$GAGNS,,,,,,NNNN,00,99.99,,,,,V*08
$GAGGA,,,,,,0,00,99.99,,,,,,*59
$GAGSA,A,1,,,,,,,,,,,,,99.99,99.99,99.99,1*3C
$GAGSA,A,1,,,,,,,,,,,,,99.99,99.99,99.99,3*3E
$GAGSV,1,1,00,0*74
$GAGSV,1,1,00,0*74
$GAGLL,,,,,,V,N*75
$GAGST,,0.0000,,,,3871293,3871293,3871293*6D
$GAZDA,,,,,00,00*59
$GLRMC,080022.00,V,,,,,,,190422,,,N,V*1F
$GLVTG,,,,,,,,,N*2C
$GLGNS,080022.00,,,,,NNNN,00,99.99,,,,,V*23
$GLGGA,080022.00,,,,,0,00,99.99,,,,,,*72
$GLGSA,A,1,,,,,,,,,,,,,99.99,99.99,99.99,2*32
$GLGSV,3,1,09,68,15,226,,69,33,277,,70,14,340,,77,17,091,,0*78
$GLGSV,3,2,09,78,66,044,,79,42,302,,81,16,163,,87,38,046,26,0*7F
$GLGSV,3,3,09,88,47,112,22,0*41
$GLGLL,,,,,080022.00,V,N*5E
$GLGST,080022.00,0.0000,,,,7049,6760,1159*72
$GLZDA,080022.00,19,04,2022,00,00*7C
$GBRMC,,V,,,,,,,,,,N,V*3B
$GBVTG,,,,,,,,,N*22
$GBGNS,,,,,,NNNN,00,99.99,,,,,V*0B
$GBGGA,,,,,,0,00,99.99,,,,,,*5A
$GBGSA,A,1,,,,,,,,,,,,,99.99,99.99,99.99,4*3A
$GBGSV,1,1,00,0*77
$GBGLL,,,,,,V,N*76
$GBGST,,0.0000,,,,3871293,3871293,3871293*6E
$GBZDA,,,,,00,00*5A
$GPRMC,080023.00,A,4809.62979,N,01707.85559,E,0.302,,190422,,,A,V*0D
$GPVTG,,T,,M,0.302,N,0.560,K,A*21
$GPGNS,080023.00,4809.62979,N,01707.85559,E,ANNN,08,0.93,106.2,41.4,,,V*0F
$GPGGA,080023.00,4809.62979,N,01707.85559,E,1,08,0.93,106.2,M,41.4,M,,*50
$GPGSA,A,3,12,32,15,17,06,25,24,19,,,,,1.64,0.93,1.35,1*1E
$GPGSV,3,1,12,02,14,136,,06,23,091,21,10,00,273,,11,08,133,,0*65
$GPGSV,3,2,12,12,73,278,14,15,12,190,10,17,19,043,19,19,37,053,26,0*69
$GPGSV,3,3,12,22,09,326,,24,75,152,11,25,29,262,09,32,23,314,19,0*67
$GPGLL,4809.62979,N,01707.85559,E,080023.00,A,A*63
$GPGST,080023.00,82,,,,18,9.8,21*5F
$GPZDA,080023.00,19,04,2022,00,00*61
$GARMC,,V,,,,,,,,,,N,V*38
$GAVTG,,,,,,,,,N*21
$GAGNS,,,,,,NNNN,00,99.99,,,,,V*08
$GAGGA,,,,,,0,00,99.99,,,,,,*59
$GAGSA,A,1,,,,,,,,,,,,,99.99,99.99,99.99,1*3C
$GAGSA,A,1,,,,,,,,,,,,,99.99,99.99,99.99,3*3E
$GAGSV,1,1,00,0*74
$GAGSV,1,1,00,0*74
$GAGLL,,,,,,V,N*75
$GAGST,,0.0000,,,,3871298,3871298,3871298*66
$GAZDA,,,,,00,00*59
$GLRMC,080023.00,V,,,,,,,190422,,,N,V*1E
$GLVTG,,,,,,,,,N*2C
$GLGNS,080023.00,,,,,NNNN,00,99.99,,,,,V*22
$GLGGA,080023.00,,,,,0,00,99.99,,,,,,*73
$GLGSA,A,1,,,,,,,,,,,,,99.99,99.99,99.99,2*32
$GLGSV,3,1,09,68,15,226,,69,33,277,,70,14,340,,77,17,091,,0*78
$GLGSV,3,2,09,78,66,044,,79,42,302,,81,16,163,,87,38,046,27,0*7E
$GLGSV,3,3,09,88,47,112,22,0*41
$GLGLL,,,,,080023.00,V,N*5F
$GLGST,080023.00,0.0000,,,,7075,6785,1163*7E
$GLZDA,080023.00,19,04,2022,00,00*7D
$GBRMC,,V,,,,,,,,,,N,V*3B
$GBVTG,,,,,,,,,N*22
$GBGNS,,,,,,NNNN,00,99.99,,,,,V*0B
$GBGGA,,,,,,0,00,99.99,,,,,,*5A
$GBGSA,A,1,,,,,,,,,,,,,99.99,99.99,99.99,4*3A
$GBGSV,1,1,00,0*77
$GBGLL,,,,,,V,N*76
$GBGST,,0.0000,,,,3871298,3871298,3871298*65
$GBZDA,,,,,00,00*5A
$GPRMC,080024.00,A,4809.62970,N,01707.85642,E,0.659,,190422,,,A,V*01
$GPVTG,,T,,M,0.659,N,1.221,K,A*29
$GPGNS,080024.00,4809.62970,N,01707.85642,E,ANNN,08,0.93,105.9,41.4,,,V*00
$GPGGA,080024.00,4809.62970,N,01707.85642,E,1,08,0.93,105.9,M,41.4,M,,*5F
$GPGSA,A,3,12,32,15,17,06,25,24,19,,,,,1.64,0.93,1.35,1*1E
$GPGSV,3,1,12,02,14,136,,06,23,091,21,10,00,273,,11,08,133,,0*65
$GPGSV,3,2,12,12,73,278,15,15,12,190,09,17,19,043,20,19,37,053,26,0*6A
$GPGSV,3,3,12,22,09,326,,24,75,152,14,25,29,262,11,32,23,314,19,0*6B
$GPGLL,4809.62970,N,01707.85642,E,080024.00,A,A*64
$GPGST,080024.00,4216613,,,,18,9.8,21*67
$GPZDA,080024.00,19,04,2022,00,00*66
$GARMC,,V,,,,,,,,,,N,V*38
$GAVTG,,,,,,,,,N*21
$GAGNS,,,,,,NNNN,00,99.99,,,,,V*08
$GAGGA,,,,,,0,00,99.99,,,,,,*59
$GAGSA,A,1,,,,,,,,,,,,,99.99,99.99,99.99,1*3C
$GAGSA,A,1,,,,,,,,,,,,,99.99,99.99,99.99,3*3E
$GAGSV,1,1,00,0*74
$GAGSV,1,1,00,0*74
$GAGLL,,,,,,V,N*75
$GAGST,,0.0000,,,,3871303,3871303,3871303*65
$GAZDA,,,,,00,00*59
$GLRMC,080024.00,V,,,,,,,190422,,,N,V*19
$GLVTG,,,,,,,,,N*2C
$GLGNS,080024.00,,,,,NNNN,00,99.99,,,,,V*25
$GLGGA,080024.00,,,,,0,00,99.99,,,,,,*74
$GLGSA,A,1,,,,,,,,,,,,,99.99,99.99,99.99,2*32
$GLGSV,3,1,09,68,15,226,,69,33,277,,70,14,340,,77,17,091,,0*78
$GLGSV,3,2,09,78,66,044,,79,42,302,,81,16,163,,87,38,046,27,0*7E
$GLGSV,3,3,09,88,47,112,22,0*41
$GLGLL,,,,,080024.00,V,N*58
$GLGST,080024.00,0.0000,,,,7101,6810,1168*73
$GLZDA,080024.00,19,04,2022,00,00*7A
$GBRMC,,V,,,,,,,,,,N,V*3B
$GBVTG,,,,,,,,,N*22
$GBGNS,,,,,,NNNN,00,99.99,,,,,V*0B
$GBGGA,,,,,,0,00,99.99,,,,,,*5A
$GBGSA,A,1,,,,,,,,,,,,,99.99,99.99,99.99,4*3A
$GBGSV,1,1,00,0*77
$GBGLL,,,,,,V,N*76
$GBGST,,0.0000,,,,3871303,3871303,3871303*66
$GBZDA,,,,,00,00*5A
$GPRMC,080025.00,A,4809.62978,N,01707.85606,E,0.394,,190422,,,A,V*0C
$GPVTG,,T,,M,0.394,N,0.729,K,A*21
$GPGNS,080025.00,4809.62978,N,01707.85606,E,ANNN,08,0.93,105.6,41.4,,,V*06
$GPGGA,080025.00,4809.62978,N,01707.85606,E,1,08,0.93,105.6,M,41.4,M,,*59
$GPGSA,A,3,12,32,15,17,06,25,24,19,,,,,1.64,0.93,1.35,1*1E
$GPGSV,3,1,12,02,14,136,,06,23,091,21,10,00,273,,11,08,133,,0*65
$GPGSV,3,2,12,12,73,278,15,15,12,190,08,17,19,043,20,19,37,053,26,0*6B
$GPGSV,3,3,12,22,09,326,,24,75,152,09,25,29,262,16,32,23,314,19,0*60
$GPGLL,4809.62978,N,01707.85606,E,080025.00,A,A*6D
$GPGST,080025.00,7284638,,,,18,9.8,21*67
$GPZDA,080025.00,19,04,2022,00,00*67
$GARMC,,V,,,,,,,,,,N,V*38
$GAVTG,,,,,,,,,N*21
$GAGNS,,,,,,NNNN,00,99.99,,,,,V*08
$GAGGA,,,,,,0,00,99.99,,,,,,*59
$GAGSA,A,1,,,,,,,,,,,,,99.99,99.99,99.99,1*3C
$GAGSA,A,1,,,,,,,,,,,,,99.99,99.99,99.99,3*3E
$GAGSV,1,1,00,0*74
$GAGSV,1,1,00,0*74
$GAGLL,,,,,,V,N*75
$GAGST,,0.0000,,,,3871308,3871308,3871308*6E
$GAZDA,,,,,00,00*59
$GLRMC,080025.00,V,,,,,,,190422,,,N,V*18
$GLVTG,,,,,,,,,N*2C
$GLGNS,080025.00,,,,,NNNN,00,99.99,,,,,V*24
$GLGGA,080025.00,,,,,0,00,99.99,,,,,,*75
$GLGSA,A,1,,,,,,,,,,,,,99.99,99.99,99.99,2*32
$GLGSV,3,1,09,68,15,226,,69,33,277,,70,14,340,,77,17,091,,0*78
$GLGSV,3,2,09,78,66,044,,79,42,302,,81,16,163,,87,38,046,27,0*7E
$GLGSV,3,3,09,88,47,112,21,0*42
$GLGLL,,,,,080025.00,V,N*59
$GLGST,080025.00,0.0000,,,,7126,6835,1172*7B
$GLZDA,080025.00,19,04,2022,00,00*7B
$GBRMC,,V,,,,,,,,,,N,V*3B
$GBVTG,,,,,,,,,N*22
$GBGNS,,,,,,NNNN,00,99.99,,,,,V*0B
$GBGGA,,,,,,0,00,99.99,,,,,,*5A
$GBGSA,A,1,,,,,,,,,,,,,99.99,99.99,99.99,4*3A
$GBGSV,1,1,00,0*77
$GBGLL,,,,,,V,N*76
$GBGST,,0.0000,,,,3871308,3871308,3871308*6D
$GBZDA,,,,,00,00*5A
$GPRMC,080026.00,A,4809.63063,N,01707.85636,E,0.651,,190422,,,A,V*02
$GPVTG,,T,,M,0.651,N,1.205,K,A*27
$GPGNS,080026.00,4809.63063,N,01707.85636,E,ANNN,08,0.93,106.3,41.4,,,V*02
$GPGGA,080026.00,4809.63063,N,01707.85636,E,1,08,0.93,106.3,M,41.4,M,,*5D
$GPGSA,A,3,12,32,15,17,06,25,24,19,,,,,1.64,0.93,1.35,1*1E
$GPGSV,3,1,12,02,14,136,,06,23,091,21,10,00,273,,11,08,133,,0*65
$GPGSV,3,2,12,12,73,278,15,15,12,190,09,17,19,043,21,19,37,053,26,0*6B
$GPGSV,3,3,12,22,09,326,,24,74,152,10,25,29,262,11,32,23,314,19,0*6E
$GPGLL,4809.63063,N,01707.85636,E,080026.00,A,A*6F
$GPGST,080026.00,84,,,,18,9.7,21*53
$GPZDA,080026.00,19,04,2022,00,00*64
$GARMC,,V,,,,,,,,,,N,V*38
$GAVTG,,,,,,,,,N*21
$GAGNS,,,,,,NNNN,00,99.99,,,,,V*08
$GAGGA,,,,,,0,00,99.99,,,,,,*59
$GAGSA,A,1,,,,,,,,,,,,,99.99,99.99,99.99,1*3C
$GAGSA,A,1,,,,,,,,,,,,,99.99,99.99,99.99,3*3E
$GAGSV,1,1,00,0*74
$GAGSV,1,1,00,0*74
$GAGLL,,,,,,V,N*75
$GAGST,,0.0000,,,,3871312,3871312,3871312*65
$GAZDA,,,,,00,00*59
$GLRMC,080026.00,V,,,,,,,190422,,,N,V*1B
$GLVTG,,,,,,,,,N*2C
$GLGNS,080026.00,,,,,NNNN,00,99.99,,,,,V*27
$GLGGA,080026.00,,,,,0,00,99.99,,,,,,*76
$GLGSA,A,1,,,,,,,,,,,,,99.99,99.99,99.99,2*32
$GLGSV,3,1,09,68,15,226,,69,33,277,,70,14,340,,77,17,091,,0*78
$GLGSV,3,2,09,78,66,044,,79,42,302,,81,16,163,,87,37,046,28,0*7E
$GLGSV,3,3,09,88,47,112,20,0*43
$GLGLL,,,,,080026.00,V,N*5A
$GLGST,080026.00,0.0000,,,,7152,6860,1176*7F
$GLZDA,080026.00,19,04,2022,00,00*78
$GBRMC,,V,,,,,,,,,,N,V*3B
$GBVTG,,,,,,,,,N*22
$GBGNS,,,,,,NNNN,00,99.99,,,,,V*0B
$GBGGA,,,,,,0,00,99.99,,,,,,*5A
$GBGSA,A,1,,,,,,,,,,,,,99.99,99.99,99.99,4*3A
$GBGSV,1,1,00,0*77
$GBGLL,,,,,,V,N*76
$GBGST,,0.0000,,,,3871312,3871312,3871312*66
$GBZDA,,,,,00,00*5A
$GPRMC,080027.00,A,4809.63085,N,01707.85663,E,0.814,,190422,,,A,V*04
$GPVTG,,T,,M,0.814,N,1.507,K,A*2D
$GPGNS,080027.00,4809.63085,N,01707.85663,E,ANNN,08,0.93,106.2,41.4,,,V*0A
$GPGGA,080027.00,4809.63085,N,01707.85663,E,1,08,0.93,106.2,M,41.4,M,,*55
$GPGSA,A,3,12,32,15,17,06,25,24,19,,,,,1.64,0.93,1.35,1*1E
$GPGSV,3,1,12,02,14,136,,06,23,091,21,10,00,273,,11,08,133,,0*65
$GPGSV,3,2,12,12,73,278,15,15,12,190,09,17,19,043,21,19,37,053,26,0*6B
$GPGSV,3,3,12,22,09,326,,24,74,152,09,25,30,263,11,32,23,314,19,0*6F
$GPGLL,4809.63085,N,01707.85663,E,080027.00,A,A*66
$GPGST,080027.00,5948065,,,,18,9.7,21*6D
$GPZDA,080027.00,19,04,2022,00,00*65
$GARMC,,V,,,,,,,,,,N,V*38
$GAVTG,,,,,,,,,N*21
$GAGNS,,,,,,NNNN,00,99.99,,,,,V*08
$GAGGA,,,,,,0,00,99.99,,,,,,*59
$GAGSA,A,1,,,,,,,,,,,,,99.99,99.99,99.99,1*3C
$GAGSA,A,1,,,,,,,,,,,,,99.99,99.99,99.99,3*3E
$GAGSV,1,1,00,0*74
$GAGSV,1,1,00,0*74
$GAGLL,,,,,,V,N*75
$GAGST,,0.0000,,,,3871317,3871317,3871317*60
$GAZDA,,,,,00,00*59
$GLRMC,080027.00,V,,,,,,,190422,,,N,V*1A
$GLVTG,,,,,,,,,N*2C
$GLGNS,080027.00,,,,,NNNN,00,99.99,,,,,V*26
$GLGGA,080027.00,,,,,0,00,99.99,,,,,,*77
$GLGSA,A,1,,,,,,,,,,,,,99.99,99.99,99.99,2*32
$GLGSV,3,1,09,68,15,226,,69,33,277,,70,14,340,,77,17,091,,0*78
$GLGSV,3,2,09,78,66,044,,79,42,302,,81,16,163,,87,37,046,28,0*7E
$GLGSV,3,3,09,88,47,111,18,0*4B
$GLGLL,,,,,080027.00,V,N*5B
$GLGST,080027.00,0.0000,,,,7177,6885,1181*7A
$GLZDA,080027.00,19,04,2022,00,00*79
$GBRMC,,V,,,,,,,,,,N,V*3B
$GBVTG,,,,,,,,,N*22
$GBGNS,,,,,,NNNN,00,99.99,,,,,V*0B
$GBGGA,,,,,,0,00,99.99,,,,,,*5A
$GBGSA,A,1,,,,,,,,,,,,,99.99,99.99,99.99,4*3A
$GBGSV,1,1,00,0*77
$GBGLL,,,,,,V,N*76
$GBGST,,0.0000,,,,3871317,3871317,3871317*63
$GBZDA,,,,,00,00*5A
$GPRMC,080028.00,A,4809.63028,N,01707.85674,E,0.508,,190422,,,A,V*0A
$GPVTG,,T,,M,0.508,N,0.942,K,A*21
$GPGNS,080028.00,4809.63028,N,01707.85674,E,ANNN,08,0.93,106.5,41.4,,,V*03
$GPGGA,080028.00,4809.63028,N,01707.85674,E,1,08,0.93,106.5,M,41.4,M,,*5C
$GPGSA,A,3,12,32,15,17,06,25,24,19,,,,,1.64,0.93,1.35,1*1E
$GPGSV,3,1,12,02,14,136,,06,23,091,22,10,00,273,,11,08,133,,0*66
$GPGSV,3,2,12,12,73,278,16,15,12,190,09,17,19,043,20,19,37,053,25,0*6A
$GPGSV,3,3,12,22,09,326,,24,74,152,11,25,30,263,13,32,23,314,20,0*6E
$GPGLL,4809.63028,N,01707.85674,E,080028.00,A,A*68
$GPGST,080028.00,5948269,,,,18,9.7,21*6C
$GPZDA,080028.00,19,04,2022,00,00*6A
$GARMC,,V,,,,,,,,,,N,V*38
$GAVTG,,,,,,,,,N*21
$GAGNS,,,,,,NNNN,00,99.99,,,,,V*08
$GAGGA,,,,,,0,00,99.99,,,,,,*59
$GAGSA,A,1,,,,,,,,,,,,,99.99,99.99,99.99,1*3C
$GAGSA,A,1,,,,,,,,,,,,,99.99,99.99,99.99,3*3E
$GAGSV,1,1,00,0*74
$GAGSV,1,1,00,0*74
$GAGLL,,,,,,V,N*75
$GAGST,,0.0000,,,,3871322,3871322,3871322*66
$GAZDA,,,,,00,00*59
$GLRMC,080028.00,V,,,,,,,190422,,,N,V*15
$GLVTG,,,,,,,,,N*2C
$GLGNS,080028.00,,,,,NNNN,00,99.99,,,,,V*29
$GLGGA,080028.00,,,,,0,00,99.99,,,,,,*78
$GLGSA,A,1,,,,,,,,,,,,,99.99,99.99,99.99,2*32
$GLGSV,3,1,09,68,15,226,,69,33,277,,70,14,340,,77,17,091,,0*78
$GLGSV,3,2,09,78,66,044,,79,42,302,,81,16,163,,87,37,046,29,0*7F
$GLGSV,3,3,09,88,47,111,17,0*44
$GLGLL,,,,,080028.00,V,N*54
$GLGST,080028.00,0.0000,,,,7203,6909,1185*74
$GLZDA,080028.00,19,04,2022,00,00*76
$GBRMC,,V,,,,,,,,,,N,V*3B
$GBVTG,,,,,,,,,N*22
$GBGNS,,,,,,NNNN,00,99.99,,,,,V*0B
$GBGGA,,,,,,0,00,99.99,,,,,,*5A
$GBGSA,A,1,,,,,,,,,,,,,99.99,99.99,99.99,4*3A
$GBGSV,1,1,00,0*77
$GBGLL,,,,,,V,N*76
$GBGST,,0.0000,,,,3871322,3871322,3871322*65
$GBZDA,,,,,00,00*5A
$GPRMC,080029.00,A,4809.63107,N,01707.85761,E,1.128,,190422,,,A,V*05
$GPVTG,,T,,M,1.128,N,2.089,K,A*2A
$GPGNS,080029.00,4809.63107,N,01707.85761,E,ANNN,08,0.93,106.2,41.4,,,V*0C
$GPGGA,080029.00,4809.63107,N,01707.85761,E,1,08,0.93,106.2,M,41.4,M,,*53
$GPGSA,A,3,12,32,15,17,06,25,24,19,,,,,1.64,0.93,1.35,1*1E
$GPGSV,3,1,12,02,14,136,,06,23,091,22,10,00,273,,11,08,133,,0*66
$GPGSV,3,2,12,12,73,278,16,15,12,190,09,17,19,043,20,19,37,053,25,0*6A
$GPGSV,3,3,12,22,09,326,,24,74,152,09,25,30,263,13,32,23,314,20,0*67
$GPGLL,4809.63107,N,01707.85761,E,080029.00,A,A*60
$GPGST,080029.00,80,,,,18,9.6,21*59
$GPZDA,080029.00,19,04,2022,00,00*6B
$GARMC,,V,,,,,,,,,,N,V*38
$GAVTG,,,,,,,,,N*21
$GAGNS,,,,,,NNNN,00,99.99,,,,,V*08
$GAGGA,,,,,,0,00,99.99,,,,,,*59
$GAGSA,A,1,,,,,,,,,,,,,99.99,99.99,99.99,1*3C
$GAGSA,A,1,,,,,,,,,,,,,99.99,99.99,99.99,3*3E
$GAGSV,1,1,00,0*74
$GAGSV,1,1,00,0*74
$GAGLL,,,,,,V,N*75
$GAGST,,0.0000,,,,3871327,3871327,3871327*63
$GAZDA,,,,,00,00*59
$GLRMC,080029.00,V,,,,,,,190422,,,N,V*14
$GLVTG,,,,,,,,,N*2C
$GLGNS,080029.00,,,,,NNNN,00,99.99,,,,,V*28
$GLGGA,080029.00,,,,,0,00,99.99,,,,,,*79
$GLGSA,A,1,,,,,,,,,,,,,99.99,99.99,99.99,2*32
$GLGSV,3,1,09,68,15,226,,69,33,277,,70,14,340,,77,17,091,,0*78
$GLGSV,3,2,09,78,66,044,,79,42,302,,81,16,163,,87,37,046,29,0*7F
$GLGSV,3,3,09,88,47,111,17,0*44
$GLGLL,,,,,080029.00,V,N*55
$GLGST,080029.00,0.0000,,,,7229,6934,1189*7F
$GLZDA,080029.00,19,04,2022,00,00*77
$GBRMC,,V,,,,,,,,,,N,V*3B
$GBVTG,,,,,,,,,N*22
$GBGNS,,,,,,NNNN,00,99.99,,,,,V*0B
$GBGGA,,,,,,0,00,99.99,,,,,,*5A
$GBGSA,A,1,,,,,,,,,,,,,99.99,99.99,99.99,4*3A
$GBGSV,1,1,00,0*77
$GBGLL,,,,,,V,N*76
$GBGST,,0.0000,,,,3871327,3871327,3871327*60
$GBZDA,,,,,00,00*5A
$GPRMC,080030.00,A,4809.63118,N,01707.85738,E,0.649,,190422,,,A,V*0E
$GPVTG,,T,,M,0.649,N,1.202,K,A*29
$GPGNS,080030.00,4809.63118,N,01707.85738,E,ANNN,08,0.93,106.1,41.4,,,V*05
$GPGGA,080030.00,4809.63118,N,01707.85738,E,1,08,0.93,106.1,M,41.4,M,,*5A
$GPGSA,A,3,12,32,15,17,06,25,24,19,,,,,1.64,0.93,1.35,1*1E
$GPGSV,3,1,12,02,14,136,,06,23,091,22,10,00,273,,11,08,133,,0*66
$GPGSV,3,2,12,12,73,278,14,15,12,190,12,17,19,043,20,19,37,053,25,0*62
$GPGSV,3,3,12,22,09,326,,24,74,152,10,25,30,263,11,32,23,314,20,0*6D
$GPGLL,4809.63118,N,01707.85738,E,080030.00,A,A*6A
$GPGST,080030.00,4206514,,,,18,9.6,21*69
$GPZDA,080030.00,19,04,2022,00,00*63
$GARMC,,V,,,,,,,,,,N,V*38
$GAVTG,,,,,,,,,N*21
$GAGNS,,,,,,NNNN,00,99.99,,,,,V*08
$GAGGA,,,,,,0,00,99.99,,,,,,*59
$GAGSA,A,1,,,,,,,,,,,,,99.99,99.99,99.99,1*3C
$GAGSA,A,1,,,,,,,,,,,,,99.99,99.99,99.99,3*3E
$GAGSV,1,1,00,0*74
$GAGSV,1,1,00,0*74
$GAGLL,,,,,,V,N*75
$GAGST,,0.0000,,,,3871332,3871332,3871332*67
$GAZDA,,,,,00,00*59
$GLRMC,080030.00,V,,,,,,,190422,,,N,V*1C
$GLVTG,,,,,,,,,N*2C
$GLGNS,080030.00,,,,,NNNN,00,99.99,,,,,V*20
$GLGGA,080030.00,,,,,0,00,99.99,,,,,,*71
$GLGSA,A,1,,,,,,,,,,,,,99.99,99.99,99.99,2*32
$GLGSV,3,1,09,68,15,226,,69,33,277,,70,14,340,,77,17,091,,0*78
$GLGSV,3,2,09,78,66,044,,79,42,302,,81,16,163,,87,37,046,28,0*7E
$GLGSV,3,3,09,88,47,111,17,0*44
$GLGLL,,,,,080030.00,V,N*5D
$GLGST,080030.00,0.0000,,,,7254,6959,1193*7D
$GLZDA,080030.00,19,04,2022,00,00*7F
$GBRMC,,V,,,,,,,,,,N,V*3B
$GBVTG,,,,,,,,,N*22
$GBGNS,,,,,,NNNN,00,99.99,,,,,V*0B
$GBGGA,,,,,,0,00,99.99,,,,,,*5A
$GBGSA,A,1,,,,,,,,,,,,,99.99,99.99,99.99,4*3A
$GBGSV,1,1,00,0*77
$GBGLL,,,,,,V,N*76
$GBGST,,0.0000,,,,3871332,3871332,3871332*64
$GBZDA,,,,,00,00*5A
$GPRMC,080031.00,A,4809.63146,N,01707.85744,E,0.770,,190422,,,A,V*04
$GPVTG,,T,,M,0.770,N,1.427,K,A*23
$GPGNS,080031.00,4809.63146,N,01707.85744,E,ANNN,07,1.45,105.6,41.4,,,V*05
$GPGGA,080031.00,4809.63146,N,01707.85744,E,1,07,1.45,105.6,M,41.4,M,,*5A
$GPGSA,A,3,12,32,17,06,25,24,19,,,,,,2.39,1.45,1.89,1*1C
$GPGSV,3,1,12,02,14,136,,06,23,091,23,10,00,273,,11,08,133,,0*67
$GPGSV,3,2,12,12,73,278,15,15,12,190,11,17,19,043,20,19,37,053,25,0*60
$GPGSV,3,3,12,22,09,326,,24,74,152,09,25,30,263,08,32,23,314,20,0*6D
$GPGLL,4809.63146,N,01707.85744,E,080031.00,A,A*6B
$GPGST,080031.00,4497841,,,,18,9.6,21*6B
$GPZDA,080031.00,19,04,2022,00,00*62
$GARMC,,V,,,,,,,,,,N,V*38
$GAVTG,,,,,,,,,N*21
$GAGNS,,,,,,NNNN,00,99.99,,,,,V*08
$GAGGA,,,,,,0,00,99.99,,,,,,*59
$GAGSA,A,1,,,,,,,,,,,,,99.99,99.99,99.99,1*3C
$GAGSA,A,1,,,,,,,,,,,,,99.99,99.99,99.99,3*3E
$GAGSV,1,1,00,0*74
$GAGSV,1,1,00,0*74
$GAGLL,,,,,,V,N*75
$GAGST,,0.0000,,,,3871337,3871337,3871337*62
$GAZDA,,,,,00,00*59
$GLRMC,080031.00,V,,,,,,,190422,,,N,V*1D
$GLVTG,,,,,,,,,N*2C
$GLGNS,080031.00,,,,,NNNN,00,99.99,,,,,V*21
$GLGGA,080031.00,,,,,0,00,99.99,,,,,,*70
$GLGSA,A,1,,,,,,,,,,,,,99.99,99.99,99.99,2*32
$GLGSV,3,1,09,68,15,226,,69,33,277,,70,14,340,,77,17,091,,0*78
$GLGSV,3,2,09,78,66,044,,79,42,302,,81,16,163,,87,37,046,27,0*71
$GLGSV,3,3,09,88,47,111,17,0*44
$GLGLL,,,,,080031.00,V,N*5C
$GLGST,080031.00,0.0000,,,,7280,6984,1198*7E
$GLZDA,080031.00,19,04,2022,00,00*7E
$GBRMC,,V,,,,,,,,,,N,V*3B
$GBVTG,,,,,,,,,N*22
$GBGNS,,,,,,NNNN,00,99.99,,,,,V*0B
$GBGGA,,,,,,0,00,99.99,,,,,,*5A
$GBGSA,A,1,,,,,,,,,,,,,99.99,99.99,99.99,4*3A
$GBGSV,1,1,00,0*77
$GBGLL,,,,,,V,N*76
$GBGST,,0.0000,,,,3871337,3871337,3871337*61
$GBZDA,,,,,00,00*5A
$GPRMC,080032.00,A,4809.63210,N,01707.85785,E,1.096,,190422,,,A,V*04
$GPVTG,,T,,M,1.096,N,2.029,K,A*24
$GPGNS,080032.00,4809.63210,N,01707.85785,E,ANNN,07,1.45,105.1,41.4,,,V*0C
$GPGGA,080032.00,4809.63210,N,01707.85785,E,1,07,1.45,105.1,M,41.4,M,,*53
$GPGSA,A,3,12,32,17,06,25,24,19,,,,,,2.39,1.45,1.89,1*1C
$GPGSV,3,1,12,02,14,136,,06,23,091,23,10,00,273,,11,08,133,,0*67
$GPGSV,3,2,12,12,73,278,16,15,12,190,11,17,19,043,20,19,37,053,24,0*62
$GPGSV,3,3,12,22,09,326,,24,74,152,09,25,30,263,16,32,23,314,20,0*62
$GPGLL,4809.63210,N,01707.85785,E,080032.00,A,A*65
$GPGST,080032.00,88,,,,18,9.5,21*58
$GPZDA,080032.00,19,04,2022,00,00*61
$GARMC,,V,,,,,,,,,,N,V*38
$GAVTG,,,,,,,,,N*21
$GAGNS,,,,,,NNNN,00,99.99,,,,,V*08
$GAGGA,,,,,,0,00,99.99,,,,,,*59
$GAGSA,A,1,,,,,,,,,,,,,99.99,99.99,99.99,1*3C
$GAGSA,A,1,,,,,,,,,,,,,99.99,99.99,99.99,3*3E
$GAGSV,1,1,00,0*74
$GAGSV,1,1,00,0*74
$GAGLL,,,,,,V,N*75
$GAGST,,0.0000,,,,3871342,3871342,3871342*60
$GAZDA,,,,,00,00*59
$GLRMC,080032.00,V,,,,,,,190422,,,N,V*1E
$GLVTG,,,,,,,,,N*2C
$GLGNS,080032.00,,,,,NNNN,00,99.99,,,,,V*22
$GLGGA,080032.00,,,,,0,00,99.99,,,,,,*73
$GLGSA,A,1,,,,,,,,,,,,,99.99,99.99,99.99,2*32
$GLGSV,3,1,09,68,15,226,,69,33,277,,70,14,340,,77,17,091,,0*78
$GLGSV,3,2,09,78,66,044,,79,42,302,,81,16,163,,87,37,046,27,0*71
$GLGSV,3,3,09,88,47,111,17,0*44
$GLGLL,,,,,080032.00,V,N*5F
$GLGST,080032.00,0.0000,,,,7305,7009,1202*7C
$GLZDA,080032.00,19,04,2022,00,00*7D
$GBRMC,,V,,,,,,,,,,N,V*3B
$GBVTG,,,,,,,,,N*22
$GBGNS,,,,,,NNNN,00,99.99,,,,,V*0B
$GBGGA,,,,,,0,00,99.99,,,,,,*5A
$GBGSA,A,1,,,,,,,,,,,,,99.99,99.99,99.99,4*3A
$GBGSV,1,1,00,0*77
$GBGLL,,,,,,V,N*76
$GBGST,,0.0000,,,,3871342,3871342,3871342*63
$GBZDA,,,,,00,00*5A
$GPRMC,080033.00,A,4809.63226,N,01707.85758,E,1.175,,190422,,,A,V*0C
$GPVTG,,T,,M,1.175,N,2.176,K,A*23
$GPGNS,080033.00,4809.63226,N,01707.85758,E,ANNN,07,1.45,105.2,41.4,,,V*0B
$GPGGA,080033.00,4809.63226,N,01707.85758,E,1,07,1.45,105.2,M,41.4,M,,*54
$GPGSA,A,3,12,32,17,06,25,24,19,,,,,,2.39,1.45,1.90,1*14
$GPGSV,3,1,12,02,14,136,,06,23,091,23,10,00,273,,11,08,133,,0*67
$GPGSV,3,2,12,12,73,278,15,15,12,190,08,17,19,043,20,19,37,053,25,0*68
$GPGSV,3,3,12,22,09,326,,24,74,152,09,25,30,263,11,32,24,314,21,0*63
$GPGLL,4809.63226,N,01707.85758,E,080033.00,A,A*61
$GPGST,080033.00,626198,,,,18,9.6,21*58
$GPZDA,080033.00,19,04,2022,00,00*60
$GARMC,,V,,,,,,,,,,N,V*38
$GAVTG,,,,,,,,,N*21
$GAGNS,,,,,,NNNN,00,99.99,,,,,V*08
$GAGGA,,,,,,0,00,99.99,,,,,,*59
$GAGSA,A,1,,,,,,,,,,,,,99.99,99.99,99.99,1*3C
$GAGSA,A,1,,,,,,,,,,,,,99.99,99.99,99.99,3*3E
$GAGSV,1,1,00,0*74
$GAGSV,1,1,00,0*74
$GAGLL,,,,,,V,N*75
$GAGST,,0.0000,,,,3871347,3871347,3871347*65
$GAZDA,,,,,00,00*59
$GLRMC,080033.00,V,,,,,,,190422,,,N,V*1F
$GLVTG,,,,,,,,,N*2C
$GLGNS,080033.00,,,,,NNNN,00,99.99,,,,,V*23
$GLGGA,080033.00,,,,,0,00,99.99,,,,,,*72
$GLGSA,A,1,,,,,,,,,,,,,99.99,99.99,99.99,2*32
$GLGSV,3,1,09,68,15,226,,69,33,277,,70,14,340,,77,17,091,,0*78
$GLGSV,3,2,09,78,66,044,,79,42,302,,81,16,163,,87,37,046,26,0*70
$GLGSV,3,3,09,88,47,111,17,0*44
$GLGLL,,,,,080033.00,V,N*5E
$GLGST,080033.00,0.0000,,,,7331,7033,1206*77
$GLZDA,080033.00,19,04,2022,00,00*7C
$GBRMC,,V,,,,,,,,,,N,V*3B
$GBVTG,,,,,,,,,N*22
$GBGNS,,,,,,NNNN,00,99.99,,,,,V*0B
$GBGGA,,,,,,0,00,99.99,,,,,,*5A
$GBGSA,A,1,,,,,,,,,,,,,99.99,99.99,99.99,4*3A
$GBGSV,1,1,00,0*77
$GBGLL,,,,,,V,N*76
$GBGST,,0.0000,,,,3871347,3871347,3871347*66
$GBZDA,,,,,00,00*5A
$GPRMC,080034.00,A,4809.63239,N,01707.85705,E,1.297,,190422,,,A,V*02
$GPVTG,,T,,M,1.297,N,2.402,K,A*2A
$GPGNS,080034.00,4809.63239,N,01707.85705,E,ANNN,07,1.45,105.3,41.4,,,V*0B
$GPGGA,080034.00,4809.63239,N,01707.85705,E,1,07,1.45,105.3,M,41.4,M,,*54
$GPGSA,A,3,12,32,17,06,25,24,19,,,,,,2.39,1.45,1.90,1*14
$GPGSV,3,1,12,02,14,136,,06,23,091,22,10,00,273,,11,08,133,,0*66
$GPGSV,3,2,12,12,73,278,15,15,12,190,10,17,19,043,20,19,37,053,24,0*60
$GPGSV,3,3,12,22,09,326,,24,74,152,09,25,30,263,15,32,24,314,21,0*67
$GPGLL,4809.63239,N,01707.85705,E,080034.00,A,A*60
$GPGST,080034.00,4533451,,,,19,9.6,21*6D
$GPZDA,080034.00,19,04,2022,00,00*67
$GARMC,,V,,,,,,,,,,N,V*38
$GAVTG,,,,,,,,,N*21
$GAGNS,,,,,,NNNN,00,99.99,,,,,V*08
$GAGGA,,,,,,0,00,99.99,,,,,,*59
$GAGSA,A,1,,,,,,,,,,,,,99.99,99.99,99.99,1*3C
$GAGSA,A,1,,,,,,,,,,,,,99.99,99.99,99.99,3*3E
$GAGSV,1,1,00,0*74
$GAGSV,1,1,00,0*74
$GAGLL,,,,,,V,N*75
$GAGST,,0.0000,,,,3871352,3871352,3871352*61
$GAZDA,,,,,00,00*59
$GLRMC,080034.00,V,,,,,,,190422,,,N,V*18
$GLVTG,,,,,,,,,N*2C
$GLGNS,080034.00,,,,,NNNN,00,99.99,,,,,V*24
$GLGGA,080034.00,,,,,0,00,99.99,,,,,,*75
$GLGSA,A,1,,,,,,,,,,,,,99.99,99.99,99.99,2*32
$GLGSV,3,1,09,68,15,226,,69,33,277,,70,14,340,,77,17,091,,0*78
$GLGSV,3,2,09,78,66,044,,79,42,302,,81,16,163,,87,37,046,26,0*70
$GLGSV,3,3,09,88,47,111,17,0*44
$GLGLL,,,,,080034.00,V,N*59
$GLGST,080034.00,0.0000,,,,7357,7058,1210*7A
$GLZDA,080034.00,19,04,2022,00,00*7B
$GBVTG,,,,,,,,,N*22
$GBGNS,,,,,,NNNN,00,99.99,,,,,V*0B
$GBGGA,,,,,,0,00,99.99,,,,,,*5A
$GBGSA,A,1,,,,,,,,,,,,,99.99,99.99,99.99,4*3A
$GBGSV,1,1,00,0*77
$GBGLL,,,,,,V,N*76
$GBGST,,0.0000,,,,3871352,3871352,3871352*62
$GBZDA,,,,,00,00*5A
$GPRMC,080035.00,A,4809.63209,N,01707.85755,E,0.997,,190422,,,A,V*0F
$GPVTG,,T,,M,0.997,N,1.846,K,A*2F
$GPGNS,080035.00,4809.63209,N,01707.85755,E,ANNN,07,1.45,105.7,41.4,,,V*08
$GPGGA,080035.00,4809.63209,N,01707.85755,E,1,07,1.45,105.7,M,41.4,M,,*57
$GPGSA,A,3,12,32,17,06,25,24,19,,,,,,2.39,1.45,1.90,1*14
$GPGSV,3,1,12,02,14,136,,06,23,091,22,10,00,273,,11,08,133,,0*66
$GPGSV,3,2,12,12,73,278,15,15,12,190,12,17,19,043,21,19,37,053,24,0*63
$GPGSV,3,3,12,22,09,326,,24,74,152,08,25,30,263,12,32,24,314,21,0*61
$GPGLL,4809.63209,N,01707.85755,E,080035.00,A,A*67
$GPGST,080035.00,81,,,,19,9.5,21*57
$GPZDA,080035.00,19,04,2022,00,00*66
$GARMC,,V,,,,,,,,,,N,V*38
$GAVTG,,,,,,,,,N*21
$GAGNS,,,,,,NNNN,00,99.99,,,,,V*08
$GAGGA,,,,,,0,00,99.99,,,,,,*59
$GAGSA,A,1,,,,,,,,,,,,,99.99,99.99,99.99,1*3C
$GAGSA,A,1,,,,,,,,,,,,,99.99,99.99,99.99,3*3E
$GAGSV,1,1,00,0*74
$GAGSV,1,1,00,0*74
$GAGLL,,,,,,V,N*75
$GAGST,,0.0000,,,,3871357,3871357,3871357*64
$GAZDA,,,,,00,00*59
$GLRMC,080035.00,V,,,,,,,190422,,,N,V*19
$GLVTG,,,,,,,,,N*2C
$GLGNS,080035.00,,,,,NNNN,00,99.99,,,,,V*25
$GLGGA,080035.00,,,,,0,00,99.99,,,,,,*74
$GLGSA,A,1,,,,,,,,,,,,,99.99,99.99,99.99,2*32
$GLGSV,3,1,09,68,15,226,,69,33,277,,70,14,340,,77,17,091,,0*78
$GLGSV,3,2,09,78,66,044,,79,42,302,,81,16,163,,87,37,046,27,0*71
$GLGSV,3,3,09,88,47,111,18,0*4B
$GLGLL,,,,,080035.00,V,N*58
$GLGST,080035.00,0.0000,,,,7382,7083,1215*70
$GLZDA,080035.00,19,04,2022,00,00*7A
$GBRMC,,V,,,,,,,,,,N,V*3B
$GBVTG,,,,,,,,,N*22
$GBGNS,,,,,,NNNN,00,99.99,,,,,V*0B
$GBGGA,,,,,,0,00,99.99,,,,,,*5A
$GBGSA,A,1,,,,,,,,,,,,,99.99,99.99,99.99,4*3A
$GBGSV,1,1,00,0*77
$GBGLL,,,,,,V,N*76
$GBGST,,0.0000,,,,3871357,3871357,3871357*67
$GBZDA,,,,,00,00*5A
$GPRMC,080036.00,A,4809.63187,N,01707.85689,E,1.023,,190422,,,A,V*0E
$GPVTG,,T,,M,1.023,N,1.894,K,A*27
$GPGNS,080036.00,4809.63187,N,01707.85689,E,ANNN,07,1.45,106.0,41.4,,,V*0A
$GPGGA,080036.00,4809.63187,N,01707.85689,E,1,07,1.45,106.0,M,41.4,M,,*55
$GPGSA,A,3,12,32,17,06,25,24,19,,,,,,2.39,1.45,1.90,1*14
$GPGSV,3,1,12,02,14,136,,06,23,091,22,10,00,273,,11,08,133,,0*66
$GPGSV,3,2,12,12,73,278,16,15,12,190,10,17,19,043,20,19,37,053,24,0*63
$GPGSV,3,3,12,22,09,326,,24,74,152,12,25,30,263,11,32,24,314,20,0*68
$GPGLL,4809.63187,N,01707.85689,E,080036.00,A,A*61
$GPGST,080036.00,4500205,,,,19,9.6,21*68
$GPZDA,080036.00,19,04,2022,00,00*65
$GARMC,,V,,,,,,,,,,N,V*38
$GAVTG,,,,,,,,,N*21
$GAGNS,,,,,,NNNN,00,99.99,,,,,V*08
$GAGGA,,,,,,0,00,99.99,,,,,,*59
